{"country": "IND", "ROUTING": {"latitude": 22.58195, "longitude": 88.36043}, "town": "Jorasanko", "city": "Kolkata", "PHONE": "+913322693310", "district": "Kolkata", "placeid": "356tunb6-ea1e2cd3ea864e318573eb6e15f5c208", "name": "Marble Palace", "WEBADDRESS": "http://www.doibedouin.com/2018/09/5-unusual-places-to-visit-in-north.html", "state": "West Bengal", "category": "300-3000-0000"}
{"country": "IND", "ROUTING": {"latitude": 28.62834, "longitude": 77.21661}, "town": "Connaught Place", "city": "New Delhi", "PHONE": "+911123365358", "district": "New Delhi", "placeid": "356ttnfv-a459b54dad074c389376c0cd82d89ab2", "name": "Jantar Mantar", "WEBADDRESS": "http://www.delhitourism.gov.in/delhitourism/tourist_place/jantar_mantar.jsp", "state": "Delhi", "category": "300-3000-0000"}
{"country": "IND", "DISPLAY": {"latitude": 27.094090213, "longitude": 77.662843257}, "ROUTING": {"latitude": 27.09378, "longitude": 77.66252}, "town": "Fatehpur Sikri", "city": "Fatehpur Sikri", "PHONE": "+917222015635", "district": "Agra", "placeid": "356tsz4p-5f316dd7267a4bd4b6be064ad2677dce", "name": "Buland Darwaza", "WEBADDRESS": "http://www.gautamandgautamgroup.org/", "state": "Uttar Pradesh", "category": "300-3000-0000"}
{"country": "IND", "DISPLAY": {"latitude": 26.91751, "longitude": 75.79649}, "ROUTING": {"latitude": 26.91754, "longitude": 75.7965}, "town": "C-Scheme", "city": "Jaipur", "district": "Jaipur", "placeid": "356tsvch-c4bcd8285f174d50972bf3115d6f0c76", "name": "Hathroi Fort", "state": "Rajasthan", "category": "300-3000-0025"}
{"country": "IND", "ROUTING": {"latitude": 17.38402, "longitude": 78.40331}, "town": "Golconda", "city": "Hyderabad", "street": "Seven Tombs Road", "PHONE": "+914023512401", "district": "Hyderabad", "placeid": "356tepfb-4774349bfb554d78a58f1a09e2778926", "name": "Golconda Fort", "WEBADDRESS": "http://www.telanganatourism.gov.in/partials/destinations/heritage-spots/hyderabad/golconda-fort.html", "state": "Telangana", "category": "300-3000-0000"}
{"country": "IND", "ROUTING": {"latitude": 19.1238, "longitude": 72.89773}, "town": "Powai", "city": "Mumbai", "street": "Adi Shankaracharya Marg", "PHONE": "+912224143200", "district": "Mumbai Suburban", "placeid": "356te7uf-4dd857f34cad479d8cff0b211a697e11", "name": "Powai Lake", "state": "Maharashtra", "category": "350-3500-0304"}
{"country": "IND", "ROUTING": {"latitude": 18.51063, "longitude": 73.85447}, "town": "Shukrawar Peth", "city": "Pune", "PHONE": "+912024482101", "placeid": "356tek92-aa10a2ba710c41baa53a95bd3c510ed8", "EMAIL": "member@rajakelkarmuseum.com", "OTHER": "http://www.facebook.com/135520809815523", "street": "Raja Dinkar Kelkar Road", "district": "Pune", "name": "Raja Dinkar Kelkar Museum", "WEBADDRESS": "http://www.rajakelkarmuseum.com/index.asp", "state": "Maharashtra", "category": "300-3000-0000"}
{"country": "IND", "ROUTING": {"latitude": 22.54739, "longitude": 88.34305}, "town": "Maidan", "city": "Kolkata", "PHONE": "+913322231890", "placeid": "356tunb6-09db2572b0b543bda8a597ace6b8b577", "EMAIL": "victomem@cal2.vsnl.net.in", "OTHER": "http://www.facebook.com/113100222172879", "district": "Kolkata", "name": "Victoria Memorial", "WEBADDRESS": "http://www.victoriamemorial-cal.org/", "state": "West Bengal", "category": "300-3000-0000", "MOBILE": "+919007317894"}
{"OTHER": "https://www.twitter.com/vkasshu", "country": "IND", "ROUTING": {"latitude": 17.40527, "longitude": 78.46929}, "town": "Saifabad", "city": "Hyderabad", "PHONE": "+914023233259", "district": "Hyderabad", "placeid": "356tepg1-2b0e7c26877c414596729afec3276c16", "name": "Birla Mandir", "WEBADDRESS": "http://www.telanganatourism.gov.in/partials/destinations/divine-destinations/hyderabad/birla-mandir.html#parentHorizontalTab1", "state": "Telangana", "category": "300-3000-0000"}
{"OTHER": "https://www.twitter.com/vkasshu", "country": "IND", "ROUTING": {"latitude": 17.40527, "longitude": 78.46929}, "town": "Saifabad", "city": "Hyderabad", "PHONE": "+914023233259", "district": "Hyderabad", "placeid": "356tepg1-2b0e7c26877c414596729afec3276c16", "name": "Birla Mandir", "WEBADDRESS": "http://www.telanganatourism.gov.in/partials/destinations/divine-destinations/hyderabad/birla-mandir.html#parentHorizontalTab1", "state": "Telangana", "category": "300-3000-0000"}
{"country": "IND", "ROUTING": {"latitude": 26.98142, "longitude": 75.84392}, "town": "Amer", "city": "Jaipur", "PHONE": "+911415110595", "district": "Jaipur", "placeid": "356tsvcm-7ed93e8c03f54939b8f3ae0eee7a27bd", "name": "Jaigarh Fort", "WEBADDRESS": "http://gautamandgautamgroup.org", "state": "Rajasthan", "category": "300-3000-0000"}
{"country": "IND", "ROUTING": {"latitude": 19.01619, "longitude": 72.83124}, "town": "Dadar West", "city": "Mumbai", "PHONE": "+918983847070", "placeid": "356jx7ps-8babdabb8d5b0f2ed23fba9350941ea0", "OTHER": "http://www.facebook.com/141644973205914", "DISPLAY": {"latitude": 19.01622, "longitude": 72.83126}, "street": "Kakasaheb Gadgil Marg", "district": "Mumbai", "name": "Siddhivinayak", "state": "Maharashtra", "category": "300-3000-0023"}
