{"country":"IND","ROUTING":{"latitude":31.60463,"longitude":74.57315},"city":"Amritsar Sub-District","street":"NH-1","district":"Amritsar","placeid":"356jx7ps-d8e8136586650d123e06e0ccd91a7314","name":"Amritsar Sub-District/NH-1/Pakistan","state":"Punjab","category":"800-8100-0172"}
{"country":"IND","ROUTING":{"latitude":23.05466,"longitude":72.59206},"town":"Shahibaug","city":"Ahmedabad","PHONE":"+917922868172","placeid":"356ts5e5-72810efc478a4edeb81cd5b51e274f7f","EMAIL":"info@calicomuseum.com","OTHER":"http://www.facebook.com/133317383374562","DISPLAY":{"latitude":23.05461,"longitude":72.59219},"street":"Shahibaug Police Station Road","district":"Ahmedabad","name":"Calico Museum of Textiles","WEBADDRESS":"http://calicomuseum.org/","state":"Gujarat","category":"300-3000-0000","FAX":"079 2286 5759","MOBILE":"+917922868172"}
{"country":"IND","ROUTING":{"latitude":18.92651,"longitude":72.8315},"town":"Fort","city":"Mumbai","PHONE":"+912222844484","placeid":"356te7g9-7ee6689e4cde41a9a109fd0343bef035","OTHER":"http://www.facebook.com/105789782794855","street":"Esplanade Road","district":"Mumbai","name":"Chhatrapati Shivaji Maharaj Vastu Sangrahalaya","WEBADDRESS":"http://www.csmvs.in/","state":"Maharashtra","category":"300-3000-0000"}
{"country":"IND","DISPLAY":{"latitude":28.6911592,"longitude":80.5519537},"ROUTING":{"latitude":28.69116,"longitude":80.55195},"city":"Palia","street":"SH-90","district":"Lakhimpur Kheri","placeid":"356jx7ps-0c44550f9dce06672a8fab441d58a0e5","name":"Palia/Gauriphanta/SH-90/Nepal","state":"Uttar Pradesh","category":"800-8100-0172"}
{"country":"IND","ROUTING":{"latitude":19.01619,"longitude":72.83124},"town":"Dadar West","city":"Mumbai","PHONE":"+918983847070","placeid":"356jx7ps-8babdabb8d5b0f2ed23fba9350941ea0","OTHER":"http://www.facebook.com/141644973205914","DISPLAY":{"latitude":19.01622,"longitude":72.83126},"street":"Kakasaheb Gadgil Marg","district":"Mumbai","name":"Siddhivinayak","state":"Maharashtra","category":"300-3000-0023"}
{"country":"IND","ROUTING":{"latitude":28.65111,"longitude":77.23437},"town":"Jama Masjid","city":"New Delhi","PHONE":"+919811046736","placeid":"356ttnfv-10ba7e4b077e403c89d77c6eebe49b26","OTHER":"http://www.facebook.com/127333183976839","DISPLAY":{"latitude":28.65111,"longitude":77.23427},"district":"Central","name":"Ya Mai Jia Qing Zhen Si","WEBADDRESS":"http://www.culturalindia.net/monuments/jama-masjid.html;http://www.delhitourism.gov.in/delhitourism/tourist_place/jama_masjid.jsp","state":"Delhi","category":"300-3000-0000"}
{"country":"IND","DISPLAY":{"latitude":23.0375616,"longitude":88.87643},"ROUTING":{"latitude":23.03756,"longitude":88.87643},"city":"Bongaon","street":"NH-35","district":"North Twenty Four Parganas","placeid":"356jx7ps-e5f8590bf1b80364bcb66957bef7e344","name":"Bongaon/Petrapole/NH-35/Bangladesh","state":"West Bengal","category":"800-8100-0172"}
{"country":"IND","DISPLAY":{"latitude":26.6487401,"longitude":88.4171951},"ROUTING":{"latitude":26.64874,"longitude":88.41719},"city":"Rajganj","street":"AH2","district":"Jalpaiguri","placeid":"356jx7ps-3323657f1b5b0707d9e8f57a3811fe21","name":"Rajganj/Phulbari/Bangladesh","state":"West Bengal","category":"800-8100-0172"}
{"country":"IND","ROUTING":{"latitude":19.23146,"longitude":72.86374},"town":"Borivali East","city":"Mumbai","street":"Kanheri Caves Road","district":"Mumbai Suburban","placeid":"356te7v6-122a60df092541b88fb384756f09e8de","name":"Kanheri Caves","state":"Maharashtra","category":"300-3000-0023"}
{"country":"IND","ROUTING":{"latitude":26.89318,"longitude":75.81692},"town":"Tilak Nagar","city":"Jaipur","street":"Jyoti Marg","district":"Jaipur","placeid":"356tsvbv-02163c20b2bf469a9c1aedb4ffe592ae","name":"Moti Dungri Fort","state":"Rajasthan","category":"300-3000-0025"}
