{"DISPLAY":{"latitude":17.6583195,"longitude":75.9248021},"ROUTING":{"latitude":17.6583195,"longitude":75.9248021},"town":"New Pachha Peth","city":"Solapur","district":"Solapur","placeid":"356xjxn4-e62a853c3c35015c03385968daf6f44d","name":"Maulana Azhad Chowk","state":"Maharashtra","category":"300-3000-0232"}
{"DISPLAY":{"latitude":29.9214671,"longitude":78.1368373},"ROUTING":{"latitude":29.9214671,"longitude":78.1368373},"town":"Kankhal","city":"Haridwar","district":"Haridwar","placeid":"3561r4ve-314c49026f550f484b2a4be9fbb86308","name":"Aarti Photo State","state":"Uttarakhand","category":"700-7400-0151"}
{"DISPLAY":{"latitude":22.6693138,"longitude":88.3837867},"ROUTING":{"latitude":22.6693138,"longitude":88.3837867},"town":"Belgharia","city":"Kolkata","district":"North Twenty Four Parganas","placeid":"356tunbg-e137e8bab03048e2990b8c58143fb775","name":"Das Ladies Tailors","state":"West Bengal","category":"600-6900-0096","MOBILE":"+918443004826"}
{"ROUTING":{"latitude":22.88588,"longitude":74.57184},"city":"Jhabua Sub-District","district":"Jhabua","placeid":"356jx7ps-0e385c73a2600695a329fb82736a9caa","name":"Place of Worship","state":"Madhya Pradesh","category":"300-3200-0031"}
{"DISPLAY":{"latitude":12.98033,"longitude":77.53035},"ROUTING":{"latitude":12.98032,"longitude":77.53037},"town":"Kamakshipalya","city":"Bengaluru","street":"6th Cross Road","district":"Bengaluru","placeid":"356jx7ps-144085c9b4130d88ba42c26b1b4c85fe","name":"Ann Enterprises","state":"Karnataka","category":"700-7250-0136"}
{"ROUTING":{"latitude":18.797,"longitude":79.09081},"city":"Gollapalle","street":"Pedapally Road","district":"Jagtial","placeid":"356jx7ps-de04d85d3dc40b96cc4734aea495b963","name":"Place of Worship","state":"Telangana","category":"300-3200-0031"}
{"DISPLAY":{"latitude":22.57455,"longitude":88.35277},"ROUTING":{"latitude":22.5745,"longitude":88.35291},"town":"B B D Bagh","city":"Kolkata","PHONE":"+913322351398","district":"Kolkata","placeid":"356cpf7c-d4eff8a6f5770cc94dc77ffdc297736a","name":"Electro India Corporation","state":"West Bengal","category":"700-7250-0136"}
{"DISPLAY":{"latitude":20.60986,"longitude":72.925875},"ROUTING":{"latitude":20.60986,"longitude":72.925875},"town":"Valsad","city":"Valsad","PHONE":"+912632253540","district":"Valsad","placeid":"356teev5-82975d3466874381a4ed24c43805eeb6","name":"Shah Narotamdas Harjivandas Company","state":"Gujarat","category":"700-7850-0123"}
{"DISPLAY":{"latitude":22.49042,"longitude":88.33866},"ROUTING":{"latitude":22.49053,"longitude":88.33864},"town":"Behala","city":"Kolkata","street":"Pashupati Bhatcaal Road","district":"South Twenty Four Parganas","placeid":"356jx7ps-189a89f573b2069b68d98c10ee31ab98","name":"Shree Shree Pashupatinath Shiv Mandir","state":"West Bengal","category":"300-3200-0000"}
{"DISPLAY":{"latitude":27.1976769,"longitude":78.034324},"ROUTING":{"latitude":27.1976769,"longitude":78.034324},"town":"Moti Bagh","city":"Agra","PHONE":"+915622240578","district":"Agra","placeid":"356tsz6x-c627cd3eff414ace925289025fbccb6a","name":"Minerva Diesel Engines Private Limited","state":"Uttar Pradesh","category":"700-7200-0000"}
{"ROUTING":{"latitude":15.4757,"longitude":78.4868},"town":"Nandyal","city":"Nandyal","street":"SH-27","district":"Kurnool","placeid":"356jx7ps-763b5d918a950e452c452136b7403a30","name":"S. V. Aquariums","state":"Andhra Pradesh","category":"600-6900-0096","MOBILE":"+919949087307"}
{"ROUTING":{"latitude":29.36058,"longitude":78.16496},"city":"Bijnor Sub-District","street":"Nihtaur Road","district":"Bijnor","placeid":"356jx7ps-f5e5747a589f0679e9c2a9fa7f00dee2","name":"Hanuman Dhaam","state":"Uttar Pradesh","category":"300-3200-0031"}
{"DISPLAY":{"latitude":15.2380421,"longitude":74.0241208},"ROUTING":{"latitude":15.2380421,"longitude":74.0241208},"city":"Salcete","district":"South Goa","placeid":"356xjxn4-7cd6b902de6803b8c618c22468a1abc4","name":"FAST FOOD & HOTEL","state":"Goa","category":"202-000"}
{"DISPLAY":{"latitude":34.0671494,"longitude":74.8461595},"ROUTING":{"latitude":34.0671494,"longitude":74.8461595},"town":"Sonar Bagh","city":"Srinagar","district":"Srinagar","placeid":"3561r4ve-9d028c65ece40e77a5d9766b6b9d6107","name":"M S Kallam Constructions","state":"Jammu & Kashmir","category":"600-6600-0077"}
{"DISPLAY":{"latitude":26.2168491,"longitude":78.1606142},"ROUTING":{"latitude":26.21685,"longitude":78.16061},"town":"Sindhya Nagar","city":"Gwalior","street":"Shabd Pratap Ashram Road","district":"Gwalior","placeid":"356jx7ps-69605ebc8c2b0a41e12cb3e4ae88ebb2","name":"Jai Maa Santoshi Dairy","state":"Madhya Pradesh","category":"600-6900-0096"}
{"OTHER":"http://www.facebook.com/1203078323038445","DISPLAY":{"latitude":12.929149,"longitude":80.2153799},"ROUTING":{"latitude":12.929149,"longitude":80.2153799},"town":"Pallikaranai","city":"Chennai","PHONE":"+919940282282","district":"Kancheepuram","placeid":"356tf319-cc1804aa0d054092b157ecb35d3e6864","name":"Villavan","WEBADDRESS":"http://veeveeveetel.com","state":"Tamil Nadu","category":"700-7400-0141"}
{"DISPLAY":{"latitude":20.0076898,"longitude":83.1768111},"ROUTING":{"latitude":20.00769,"longitude":83.17681},"city":"Sadar(P)","street":"NH-201","district":"Kalahandi","placeid":"356jx7ps-6f54bc20106b0e4e9e4d32b973beed4c","name":"Belamal","state":"Odisha","category":"900-9100-0214"}
{"DISPLAY":{"latitude":26.156189,"longitude":83.3294473},"ROUTING":{"latitude":26.156189,"longitude":83.3294473},"town":"Jiyanpur","city":"Sagri","district":"Azamgarh","placeid":"356tuekb-495f86c27fd14fb29314a2c36381c700","name":"Rupali General Stores","state":"Uttar Pradesh","category":"600-6300-0066"}
{"DISPLAY":{"latitude":28.68054,"longitude":77.32964},"ROUTING":{"latitude":28.68058,"longitude":77.32968},"town":"Old Seemapuri","city":"New Delhi","district":"North East","placeid":"356ttngp-74ed801abc4c4c17a9696e6cfe94f9ab","name":"Rawat ji garments","state":"Delhi","category":"600-6800-0000"}
{"DISPLAY":{"latitude":12.949927,"longitude":80.1800777},"ROUTING":{"latitude":12.949927,"longitude":80.1800777},"town":"Kilkattalai","city":"Chennai","district":"Kancheepuram","placeid":"356tf318-47a915168e604aa5ba9f023c15b234ba","name":"Perfect Park","state":"Tamil Nadu","category":"900-9300-0221"}
{"DISPLAY":{"latitude":12.97943,"longitude":80.1808},"ROUTING":{"latitude":12.97941,"longitude":80.1808},"town":"Nanganallur","city":"Chennai","PHONE":"+914422240326","district":"Kancheepuram","placeid":"3561r4ve-ce0093cf70370eeca3f32a7d0e7714e4","name":"Ammbal Gold House","state":"Tamil Nadu","category":"600-6900-0101"}
{"ROUTING":{"latitude":17.06783,"longitude":78.29975},"city":"Farooqnagar","district":"Rangareddy","placeid":"356jx7ps-0494268492230454518fb377209891ee","name":"Place of Worship","state":"Telangana","category":"300-3200-0034"}
{"DISPLAY":{"latitude":11.7736024,"longitude":79.5492646},"ROUTING":{"latitude":11.7736024,"longitude":79.5492646},"town":"Panruti","city":"Panruti","district":"Cuddalore","placeid":"356tf0df-46f5844f092e43fdacf034bf389ed15d","name":"Uk Hardware Store","state":"Tamil Nadu","category":"600-6600-0077"}
{"DISPLAY":{"latitude":28.65396,"longitude":77.41235},"ROUTING":{"latitude":28.65392,"longitude":77.41234},"town":"Pratap Vihar","city":"Ghaziabad","district":"Ghaziabad","placeid":"356ttp51-22cb2fe4af3947379bdf6fe9c7267d07","name":"Dr. Laxmi Tiwari","state":"Uttar Pradesh","category":"800-8000-0158","MOBILE":"+919582373290"}
{"DISPLAY":{"latitude":13.02386,"longitude":77.51367},"ROUTING":{"latitude":13.02387,"longitude":77.51368},"town":"Peenya Industrial Area","city":"Bengaluru","PHONE":"+918028391109","district":"Bengaluru","placeid":"356tdr45-10d3f73cbb114776a7904b6b6173a551","name":"Shilpa Enterprises Peenya","state":"Karnataka","category":"700-7400-0141"}
{"ROUTING":{"latitude":18.82273,"longitude":78.72331},"town":"Koratla","city":"Koratla","street":"NH-16","district":"Jagtial","placeid":"356jx7ps-b616050829380dc49dceff2dbd3675dc","name":"Shaharan Juice Point","state":"Telangana","category":"600-6300-0064"}
{"DISPLAY":{"latitude":29.3239008,"longitude":77.8505956},"ROUTING":{"latitude":29.3239,"longitude":77.85059},"town":"Jansath","city":"Khatauli","district":"Muzaffarnagar","placeid":"356ttpqg-8f1c115aa36e4b53abd0ff1d353ba129","name":"Saltanat Bahadur Mahabidy Inter College","state":"Uttar Pradesh","category":"800-8200-0173"}
{"DISPLAY":{"latitude":16.23512,"longitude":80.05707},"ROUTING":{"latitude":16.23512,"longitude":80.05707},"town":"Narasaraopet","city":"Narasaraopet","district":"Guntur","placeid":"3561r4ve-7fa90b13c0e00c01e0ff474ae87245b9","name":"Durga Kalyani Agencies","state":"Andhra Pradesh","category":"700-7400-0141"}
{"DISPLAY":{"latitude":28.630654,"longitude":77.11773},"ROUTING":{"latitude":28.630654,"longitude":77.11773},"town":"Hari Nagar","city":"New Delhi","PHONE":"+911125128611","district":"West","placeid":"356ttnff-96e94fa762ce4404b206c2c028b45abc","name":"Dheengra Properties","state":"Delhi","category":"700-7250-0136"}
{"DISPLAY":{"latitude":26.0786125,"longitude":83.1883982},"ROUTING":{"latitude":26.0786125,"longitude":83.1883982},"town":"Purai Jodhi","city":"Azamgarh","PHONE":"+919984291325","district":"Azamgarh","placeid":"3561r4ve-3efcfeceaee608922b1775a84ac44914","name":"Sharma Pco","state":"Uttar Pradesh","category":"700-7100-0134"}
{"DISPLAY":{"latitude":28.64784,"longitude":77.06189},"ROUTING":{"latitude":28.64784,"longitude":77.06184},"town":"Nangloi","city":"New Delhi","district":"West","placeid":"356ttnfc-f0eb9679c0a148148f3f0fa6b25ab037","name":"Excel Coaching Center","state":"Delhi","category":"800-8200-0295"}
{"DISPLAY":{"latitude":9.40239,"longitude":76.56274},"ROUTING":{"latitude":9.4024,"longitude":76.56276},"town":"Thiruvalla","city":"Thiruvalla","district":"Pathanamthitta","placeid":"3561r4ve-d9645ff45b290ded69b17def7e80f376","name":"SN Upholstery Works","state":"Kerala","category":"700-7400-0146"}
{"DISPLAY":{"latitude":26.86016,"longitude":81.00175},"ROUTING":{"latitude":26.86017,"longitude":81.0017},"town":"Gomti Nagar","city":"Lucknow","district":"Lucknow","placeid":"356tuc8g-6e02c70fee5d4e7591771ae7492a630e","name":"Vansh Raj Travels","state":"Uttar Pradesh","category":"600-6900-0096","MOBILE":"+918009712345"}
{"ROUTING":{"latitude":23.57369,"longitude":76.48105},"town":"Sarangpur","city":"Sarangpur","street":"SH-41","district":"Rajgarh","placeid":"356jx7ps-0eb791295b690cef58b058b1c89b6c44","name":"Darbar Restaurant and Cold Drinks","state":"Madhya Pradesh","category":"202-000"}
{"ROUTING":{"latitude":12.87177,"longitude":74.88664},"town":"Padil","city":"Mangaluru","street":"Padil Junction","district":"Dakshina Kannada","placeid":"356jx7ps-9ed71a862e700ad4aac30b86c1b1dd88","name":"Padil Junction","state":"Karnataka","category":"300-3000-0232"}
{"ROUTING":{"latitude":10.25387,"longitude":76.36672},"city":"Mukundapuram","street":"Service Road","district":"Thrissur","placeid":"356t9y63-6be1a7600ea54609b31a9788a672e205","name":"Jubilee","state":"Kerala","category":"202-000"}
{"DISPLAY":{"latitude":9.221243,"longitude":78.4960422},"ROUTING":{"latitude":9.221243,"longitude":78.4960422},"city":"Kadaladi","district":"Ramanathapuram","placeid":"356t9xu6-2cf9185a784548dfb1cc061c3c873373","name":"Varun Jewelers","state":"Tamil Nadu","category":"600-6900-0096"}
{"DISPLAY":{"latitude":17.0096302,"longitude":81.7947454},"ROUTING":{"latitude":17.00963,"longitude":81.79474},"town":"Rajahmundry","city":"Rajahmundry","district":"East Godavari","placeid":"356jx7ps-6e24268d4951074962dcf813ededb16a","name":"Sri Srinivasa Automobile Repair Shop","state":"Andhra Pradesh","category":"700-7850-0000"}
{"DISPLAY":{"latitude":22.9646516,"longitude":78.0278954},"ROUTING":{"latitude":22.96465,"longitude":78.02789},"city":"Badi","district":"Raisen","placeid":"356jx7ps-8c24deb52ae5090701013629887dd85d","name":"Imaliya","state":"Madhya Pradesh","category":"900-9100-0214"}
{"ROUTING":{"latitude":26.22391,"longitude":84.35916},"town":"Siwan","city":"Siwan","street":"Andar Raghunathpur Road","district":"Siwan","placeid":"356jx7ps-68880505144c08d1d8c904addfa85df8","name":"Mangalam Infotech","state":"Bihar","category":"700-7400-0141"}
{"DISPLAY":{"latitude":18.73716,"longitude":73.09314},"ROUTING":{"latitude":18.73716,"longitude":73.09314},"town":"Pen","city":"Pen","district":"Raigarh","placeid":"356xjxn4-b30a4633e8830a8e56d9b4981207f6f0","name":"Rahul Cutlery","state":"Maharashtra","category":"600-6600-0078"}
{"DISPLAY":{"latitude":26.87221,"longitude":80.89678},"ROUTING":{"latitude":26.87219,"longitude":80.89677},"town":"Thakurganj","city":"Lucknow","street":"Hardoi Road","district":"Lucknow","placeid":"356tuc8b-0f60295f3f04499bb8d42b8e9fa51f78","name":"Guddu Bag House","state":"Uttar Pradesh","category":"600-6900-0096"}
{"DISPLAY":{"latitude":23.180519,"longitude":75.7751152},"ROUTING":{"latitude":23.180519,"longitude":75.7751152},"town":"Sakhipura","city":"Ujjain","district":"Ujjain","placeid":"3561r4ve-b722d489a6560cb64e2808d2fb116a07","name":"Mahesh Yadav","state":"Madhya Pradesh","category":"700-7400-0138"}
{"DISPLAY":{"latitude":18.2514121,"longitude":79.0195045},"ROUTING":{"latitude":18.2514121,"longitude":79.0195045},"town":"Bejjanki","city":"Bejjanki","district":"Siddipet","placeid":"356tg0py-5e02d1c37d9d4005af6c07b48d570026","name":"Shiv Sweet House","state":"Telangana","category":"600-6900-0096"}
{"OTHER":"http://www.facebook.com/224273977680613","DISPLAY":{"latitude":26.87058,"longitude":80.95584},"ROUTING":{"latitude":26.8706,"longitude":80.95584},"town":"Nishatganj","city":"Lucknow","PHONE":"+919651908608","district":"Lucknow","placeid":"356d408k-19cdef7f598e0477e85408338e022c8f","name":"Umesh Chikan Palace","state":"Uttar Pradesh","category":"600-6900-0096"}
{"DISPLAY":{"latitude":12.92026,"longitude":77.63679},"ROUTING":{"latitude":12.92027,"longitude":77.63679},"town":"Koramangala","city":"Bengaluru","PHONE":"+918065902721","district":"Bengaluru","placeid":"356tdr1w-af39032b0aab0ebde501d5962d3a794a","name":"Sumitra Enterprise","state":"Karnataka","category":"600-6600-0085"}
{"DISPLAY":{"latitude":28.7835706,"longitude":77.0421115},"ROUTING":{"latitude":28.7835706,"longitude":77.0421115},"town":"Bawana","city":"New Delhi","district":"North West","placeid":"356ttng9-c5b4f6f0cf894813bc9d6ef45f2b4118","name":"Bharat Petroleum Corporation LTD. Petrol Pump","WEBADDRESS":"http://bharatpetroleum.com","TOLLFREE":"1800222725","state":"Delhi","category":"700-7600-0116","EMAIL":"bpclsaptc@bharatpetroleum.in"}
{"ROUTING":{"latitude":18.69242,"longitude":76.94613},"town":"Ahmadpur","city":"Ahmadpur","street":"MSH-3","district":"Latur","placeid":"356jx7ps-8d0532e4020205486094c594792121b2","name":"Mayur Diesel","state":"Maharashtra","category":"700-7850-0000"}
{"ROUTING":{"latitude":17.43945,"longitude":81.77798},"town":"Rampachodavaram","city":"Rampachodavaram","street":"SH-41","district":"East Godavari","placeid":"356jx7ps-4eb393fc4d380cda21ca6cc4f0db632d","name":"India Post","state":"Andhra Pradesh","category":"700-7450-0114"}
{"DISPLAY":{"latitude":27.13375,"longitude":81.9612},"ROUTING":{"latitude":27.13379,"longitude":81.96119},"town":"Jankinagar Village","city":"Gonda","district":"Gonda","placeid":"356jx7ps-c5f307062a7b088f909aae2a2d9a3c03","name":"Indian Oil","state":"Uttar Pradesh","category":"700-7600-0116"}
{"DISPLAY":{"latitude":12.8906029,"longitude":79.7878254},"ROUTING":{"latitude":12.8906029,"longitude":79.7878254},"city":"Kancheepuram Sub-District","district":"Kancheepuram","placeid":"356tf29r-30ec69dfc3404c41ba4d739d77bf046f","name":"Daushzka General Stores","state":"Tamil Nadu","category":"600-6300-0066"}
{"DISPLAY":{"latitude":18.8921781,"longitude":78.6217996},"ROUTING":{"latitude":18.8921781,"longitude":78.6217996},"city":"Ibrahimpatnam","district":"Jagtial","placeid":"356tergm-100957a96c094e61858deadc10243ad9","name":"Doulat Hair Styles","state":"Telangana","category":"600-6950-0000"}
{"ROUTING":{"latitude":28.49821,"longitude":77.24556},"town":"Sangam Vihar","city":"New Delhi","street":"Main Ratiya Marg","district":"South","placeid":"356ttnfj-d993ec50418245a99d86357db7861bc6","name":"Anjali Communication","state":"Delhi","category":"600-6500-0072"}
{"DISPLAY":{"latitude":30.8148557,"longitude":75.160717},"ROUTING":{"latitude":30.81483,"longitude":75.16069},"town":"Vedant Nagar","city":"Moga","street":"Kichlu Road","district":"Moga","placeid":"356jx7ps-752b591a70f109841a5238efe5a458dd","name":"Friends Property Advisor","state":"Punjab","category":"700-7250-0136"}
{"DISPLAY":{"latitude":25.17061,"longitude":75.84557},"ROUTING":{"latitude":25.17052,"longitude":75.84553},"town":"Gumanpura","city":"Kota","district":"Kota","placeid":"356tsmzj-632c8234a83740729c4108e107cea747","name":"Sant Baba rangi Ram dam","state":"Rajasthan","category":"300-3200-0031"}
{"DISPLAY":{"latitude":21.11009,"longitude":79.08928},"ROUTING":{"latitude":21.11012,"longitude":79.08922},"town":"Rameshwari","city":"Nagpur","street":"Subhedar Ramji Ambedkar Marg","district":"Nagpur","placeid":"356tgb0p-78a167069cbd47a883329d0ce71ece4b","name":"Yashodas multispeciality","state":"Maharashtra","category":"800-8000-0158"}
{"DISPLAY":{"latitude":22.51695,"longitude":88.36575},"ROUTING":{"latitude":22.51694,"longitude":88.36575},"town":"Ballygunge","city":"Kolkata","district":"Kolkata","placeid":"356tunb4-c41c43dbde90427f896b4de7b1a46969","name":"Medley","state":"West Bengal","category":"600-6300-0064"}
{"ROUTING":{"latitude":17.5234,"longitude":73.53569},"town":"Chiplun","city":"Chiplun","street":"Bharatratna Dr Babasaheb Ambedkar Chowk","district":"Ratnagiri","placeid":"356jx7ps-0007700c7b6402894d32a216ecc5d163","name":"Bharatratna Dr Babasaheb Ambedkar C","state":"Maharashtra","category":"300-3000-0232"}
{"DISPLAY":{"latitude":28.6730192,"longitude":77.2753667},"ROUTING":{"latitude":28.6730192,"longitude":77.2753667},"town":"New Seelampur","city":"New Delhi","district":"North East","placeid":"3561r4ve-727d2cd7f27c03f2e196d1425fa5c411","name":"New Famous Tailors","state":"Delhi","category":"700-7400-0149"}
{"ROUTING":{"latitude":17.6813,"longitude":75.90375},"town":"Budhvar Peth","city":"Solapur","street":"Mahatma Gandhi Road","PHONE":"+912172326961","district":"Solapur","placeid":"356jx7ps-746572d7782b024f9fa8f71e07497fb0","name":"Kanchan Engineers","state":"Maharashtra","category":"700-7400-0141"}
{"ROUTING":{"latitude":22.95922,"longitude":78.57635},"city":"Gadarwara","street":"SH-44","district":"Narsimhapur","placeid":"356jx7ps-ae15e157e0470be53b4d863009cdf5fc","name":"Deepak Beej Bhandar","state":"Madhya Pradesh","category":"600-6900-0096"}
{"OTHER":"http://www.facebook.com/1640939512826205","DISPLAY":{"latitude":20.8987188,"longitude":82.5088142},"ROUTING":{"latitude":20.8987188,"longitude":82.5088142},"town":"Khariar Road","city":"Jonk","PHONE":"+919439521183","district":"Nuapada","placeid":"356tgdwv-31f7f57bd85b4bbcb790373c29db9363","name":"Golden Travel & Tourism","WEB
":"http://www.goldentravelsandtourism.com","state":"Odisha","category":"700-7400-0133"}
{"OTHER":"http://www.facebook.com/1620511331543482","DISPLAY":{"latitude":8.9088933,"longitude":76.7369852},"ROUTING":{"latitude":8.9088933,"longitude":76.7369852},"city":"Kottarakkara","PHONE":"+919497899113","district":"Kollam","placeid":"356t9wdd-79ff7a0c96f943f3b8d1c442c3ee433d","name":"Rainbow Books","WEBADDRESS":"http://rainbowbooks.net","state":"Kerala","category":"700-7200-0000"}
{"DISPLAY":{"latitude":8.9582397,"longitude":77.3081447},"ROUTING":{"latitude":8.9582397,"longitude":77.3081447},"town":"Tenkasi","city":"Tenkasi","district":"Tirunelveli","placeid":"3561r4ve-320a62e776ca03b8b507dcf1b0107a1c","name":"Internet Browsing","state":"Tamil Nadu","category":"700-7100-0000"}
{"ROUTING":{"latitude":10.23159,"longitude":76.19619},"town":"Kodungallur","city":"Kodungallur","street":"NH-17","district":"Thrissur","placeid":"356jx7ps-50f892269c0d0e5e939c1b1df28145ff","name":"Leo Sarry Palace","state":"Kerala","category":"600-6800-0000"}
{"DISPLAY":{"latitude":12.9083724,"longitude":80.1980433},"ROUTING":{"latitude":12.9083724,"longitude":80.1980433},"town":"Perumbakkam","city":"Chennai","district":"Kancheepuram","placeid":"356tf312-59de27eb071b4976ba3212f9ecdf6e02","name":"Sri Ramakrishna Hardware","state":"Tamil Nadu","category":"600-6600-0077"}
{"DISPLAY":{"latitude":21.2105101,"longitude":82.3321305},"ROUTING":{"latitude":21.21051,"longitude":82.33213},"city":"Mahasamund","district":"Mahasamund","placeid":"356jx7ps-4bd2c20393a7034360327bf9941808ea","name":"Mudiyadih","state":"Chhattisgarh","category":"900-9100-0214"}
{"ROUTING":{"latitude":25.22267,"longitude":86.97383},"town":"Bhagalpur","city":"Bhagalpur","street":"Aliganj Chowk","district":"Bhagalpur","placeid":"356jx7ps-37d6f3fdf22e026863523a4f73729aa7","name":"Shikahanjali","state":"Bihar","category":"600-6300-0066"}
{"ROUTING":{"latitude":15.8489,"longitude":74.50984},"town":"Shahpur","city":"Belagavi","street":"Goodshed Road","district":"Belagavi","placeid":"356tdufp-51f211ea3536480985b4223c2a113710","name":"Rajiv Gandhi Brigade Play Ground","state":"Karnataka","category":"550-5510-0202"}
{"ROUTING":{"latitude":25.26856,"longitude":87.23791},"town":"Kahalgaon","city":"Kahalgaon","street":"NH-80","district":"Bhagalpur","placeid":"356jx7ps-3cf32c40801209e2f3534037f1621136","name":"Kalyani Furniture","state":"Bihar","category":"600-6600-0078"}
{"DISPLAY":{"latitude":23.23815,"longitude":77.40105},"ROUTING":{"latitude":23.23815,"longitude":77.40105},"town":"Banganga","city":"Bhopal","district":"Bhopal","placeid":"356tsph1-1bdb9d96a48d4109a4bbc207486e690a","name":"Impression Dresses","state":"Madhya Pradesh","category":"600-6800-0000","MOBILE":"+919300298452"}
{"OTHER":"http://www.facebook.com/661933893903399","DISPLAY":{"latitude":18.97505,"longitude":72.82579},"ROUTING":{"latitude":18.97495,"longitude":72.82576},"town":"Mumbai Central","city":"Mumbai","PHONE":"+919819124372","district":"Mumbai","placeid":"356te7uc-9346931c80ba4fcdade7f023ec028c6c","name":"A99shope","WEBADDRESS":"http://a99shope.com","state":"Maharashtra","category":"600-6800-0000"}
{"DISPLAY":{"latitude":11.3390729,"longitude":77.72817},"ROUTING":{"latitude":11.3390729,"longitude":77.72817},"town":"Marapalam","city":"Erode","district":"Erode","placeid":"356xjxn4-572f06bf135f01df4c04e010362aa1a4","name":"Ars Stationers and Books","state":"Tamil Nadu","category":"600-6700-0087"}
{"DISPLAY":{"latitude":28.5963101,"longitude":76.2759353},"ROUTING":{"latitude":28.5963101,"longitude":76.2759353},"town":"Charkhi Dadri","city":"Charkhi Dadri","district":"Bhiwani","placeid":"356xjxn4-4793f9d3ac7609dcad314cc70b92b7a8","name":"Suhag Bangle","state":"Haryana","category":"600-6800-0000"}
{"DISPLAY":{"latitude":29.8057598,"longitude":76.3960816},"ROUTING":{"latitude":29.8057598,"longitude":76.3960816},"town":"Old City","city":"Kaithal","district":"Kaithal","placeid":"356xjxn4-4b686fa1701b025a9fc31386a2f60199","name":"Vishram Grah","state":"Haryana","category":"500-5100-0000"}
{"ROUTING":{"latitude":21.08106,"longitude":72.84514},"town":"Gabheni","city":"Sachin","street":"Talagpur Road","district":"Surat","placeid":"356jx7ps-e4fbc2ba529b05ca902e8dbd27aefa44","name":"Ambe Medical Store","state":"Gujarat","category":"600-6400-0000"}
{"ROUTING":{"latitude":11.65794,"longitude":78.16723},"town":"I Agraharam","city":"Salem","street":"2nd Agraharam Main Road","district":"Salem","placeid":"356jx7ps-dc5167390ab90799b74c91d75c09c88b","name":"Consultant Psychlatrist","state":"Tamil Nadu","category":"800-8000-0158"}
{"ROUTING":{"latitude":28.65023,"longitude":77.22493},"town":"Hauz Qazi","city":"New Delhi","PHONE":"+911123212447","district":"Central","placeid":"356jx7ps-5d805d4508250b19e0423db246a7178e","name":"Aggarwal Pipe Agency","state":"Delhi","category":"600-6600-0077"}
{"ROUTING":{"latitude":25.94628,"longitude":83.56108},"town":"Ibrahimpura","city":"Maunath Bhanjan","street":"Mou Main Road","district":"Maunath Bhanjan","placeid":"356jx7ps-e58887817b9703a2407c80499085c282","name":"Metro Polytex","state":"Uttar Pradesh","category":"700-7250-0136"}
{"DISPLAY":{"latitude":23.6468319,"longitude":86.8156271},"ROUTING":{"latitude":23.64683,"longitude":86.81563},"city":"Neturia","street":"Purulia Barakar Road","district":"Puruliya","placeid":"356jx7ps-69e407e33b3603e75a3e8296e2aeca9d","name":"Anandapur","state":"West Bengal","category":"900-9100-0214"}
{"OTHER":"http://www.facebook.com/766362706827204","DISPLAY":{"latitude":13.00162,"longitude":77.66127},"ROUTING":{"latitude":13.00161,"longitude":77.66125},"town":"Kasthuri Nagar","city":"Bengaluru","PHONE":"+919845550117","district":"Bengaluru","placeid":"356tdr1z-8310409fb1e748df9c6b62e7980a6ee4","name":"Rajiv Gandhi Vision India Foundation - - R","state":"Karnataka","category":"700-7200-0269"}
{"DISPLAY":{"latitude":27.387077,"longitude":80.1229243},"ROUTING":{"latitude":27.387077,"longitude":80.1229243},"town":"Radha Nagar","city":"Hardoi","district":"Hardoi","placeid":"356tubgz-5ba42d7664d5408493d619c0f9372598","name":"Surya Cement Traders","state":"Uttar Pradesh","category":"700-7250-0136"}
{"DISPLAY":{"latitude":21.1167,"longitude":79.1133},"ROUTING":{"latitude":21.1167,"longitude":79.1133},"town":"Ayodhya Nagar","city":"Nagpur","district":"Nagpur","placeid":"356tg8py-5e3aa6a0640a492087db86865f4f53b0","name":"Anjani Travels","state":"Maharashtra","category":"700-7400-0133"}
{"DISPLAY":{"latitude":20.26402,"longitude":74.4395748},"ROUTING":{"latitude":20.26402,"longitude":74.4395748},"town":"Manmad","city":"Nandgaon","district":"Nashik","placeid":"3561r4ve-f055483fc88c06bd3ef705528b87e044","name":"Virendar Optical","state":"Maharashtra","category":"800-8000-0161"}
{"ROUTING":{"latitude":18.11908,"longitude":83.39998},"town":"Vizianagaram","city":"Vizianagaram","district":"Vizianagaram","placeid":"356tg5r1-2dc741c67b934897bb917ebd5270c39e","name":"Sate Bank Rural Self Employment TRG Inst","state":"Andhra Pradesh","category":"800-8200-0295"}
{"DISPLAY":{"latitude":28.5565,"longitude":77.23658},"ROUTING":{"latitude":28.55649,"longitude":77.23666},"town":"Greater Kailash","city":"New Delhi","PHONE":"+911126232679","district":"South","placeid":"356ttnfm-20f466d741d64bb282d6d03f9adc3958","name":"Hira Auto Agencies","state":"Delhi","category":"700-7850-0122"}
{"DISPLAY":{"latitude":23.00492,"longitude":72.54786},"ROUTING":{"latitude":23.00484,"longitude":72.54791},"town":"Vasna","city":"Ahmedabad","district":"Ahmedabad","placeid":"356ts5df-75e2b705057948b392e8e85b56e60a90","name":"Shanti Tower","state":"Gujarat","category":"900-9300-0221"}
{"OTHER":"http://www.facebook.com/402873969888595","DISPLAY":{"latitude":23.0353196,"longitude":72.4488398},"ROUTING":{"latitude":23.0353196,"longitude":72.4488398},"town":"Ghuma","city":"Ahmedabad","PHONE":"+919727379567","district":"Ahmedabad","placeid":"356ts5e0-ce77273de9264edab19683961320ff55","name":"Tiny Footsteps","state":"Gujarat","category":"800-8200-0174"}
{"DISPLAY":{"latitude":25.206786,"longitude":83.1892178},"ROUTING":{"latitude":25.20678,"longitude":83.18921},"city":"Chandauli Sub-District","district":"Chandauli","placeid":"356jx7ps-0d1e21c21f5206315b0306317354d4bb","name":"Ghurahupur","state":"Uttar Pradesh","category":"900-9100-0214"}
{"ROUTING":{"latitude":12.76778,"longitude":75.19555},"town":"Puttur","city":"Puttur","street":"SH-88","district":"Dakshina Kannada","placeid":"356jx7ps-c37fb62b66cd070dab27c8338cf1b5f6","name":"Varun Motors-Mahindra","state":"Karnataka","category":"700-7800-0120"}
{"DISPLAY":{"latitude":30.16404,"longitude":74.18606},"ROUTING":{"latitude":30.16404,"longitude":74.18606},"town":"Restricted Area","city":"Abohar","district":"Fazilka","placeid":"3561r4ve-deb86106188f032b73e2cb27b070c541","name":"John Deere Authorized Dealer","state":"Punjab","category":"700-7400-0141"}
{"ROUTING":{"latitude":23.48061,"longitude":80.10049},"town":"Sihora","city":"Majholi","street":"NH-7","district":"Jabalpur","placeid":"356jx7ps-e291b02caf74087a3262f4c9f95ba492","name":"Shree Lakshmi Auto Parts","state":"Madhya Pradesh","category":"700-7850-0123"}
{"DISPLAY":{"latitude":23.7871915,"longitude":76.6179909},"ROUTING":{"latitude":23.7871915,"longitude":76.6179909},"town":"Khujner","city":"Sarangpur","district":"Rajgarh","placeid":"3561r4ve-de20119d9edd06307c5c9c3dd9f6f4af","name":"Sahu Digital Photo Studio","state":"Madhya Pradesh","category":"700-7400-0144"}
{"ROUTING":{"latitude":22.29899,"longitude":70.7991},"town":"Rajkot H. O.","city":"Rajkot","street":"Mahatma Gandhi Road","PHONE":"+912812442862","district":"Rajkot","placeid":"356jx7ps-3099381fa0eb0313147bfd64b05532ea","name":"Shree Ambika Marble","state":"Gujarat","category":"700-7250-0136"}
{"ROUTING":{"latitude":26.56135,"longitude":76.32897},"town":"Lalsot","city":"Lalsot","street":"NH-11A","district":"Dausa","placeid":"356jx7ps-45ade03a8556024c7e139fd8ed012526","name":"Dushad General Store","state":"Rajasthan","category":"600-6900-0096"}
{"OTHER":"http://www.facebook.com/905139472849999","DISPLAY":{"latitude":22.18691,"longitude":84.58208},"ROUTING":{"latitude":22.18691,"longitude":84.58208},"town":"Rajagangapur","city":"Rajagangapur(P)","PHONE":"+919040292088","district":"Sundargarh","placeid":"356d408k-b87069afdb4501dc65bf9b2459ea0c91","name":"Nice To Wear You Razia Collection","state":"Odisha","category":"600-6800-0090"}
{"DISPLAY":{"latitude":28.55852,"longitude":77.2529},"ROUTING":{"latitude":28.55857,"longitude":77.25286},"town":"East Of Kailash","city":"New Delhi","PHONE":"+911126435277","district":"South","placeid":"356ttnfm-fe5fa778e9874179995e0752537bc7ab","name":"MM Narang and Associates","state":"Delhi","category":"700-7200-0271"}
{"DISPLAY":{"latitude":18.9793,"longitude":72.8271},"ROUTING":{"latitude":18.97927,"longitude":72.82694},"town":"Jacob Circle","city":"Mumbai","street":"Maulana Azad Road","district":"Mumbai","placeid":"356jx7ps-dd8e1ee0e63f0c542ca74d90b3f5eb8e","name":"Garib Nawaz Plaster","state":"Maharashtra","category":"600-6600-0077"}
{"ROUTING":{"latitude":26.28519,"longitude":73.01512},"town":"Sardarpura","city":"Jodhpur","district":"Jodhpur","placeid":"356jx7ps-6209a49be1800579f404d93405207f09","name":"Dilip Kumar Vishnu Kumar","state":"Rajasthan","category":"600-6800-0090","MOBILE":"+919462615558"}
{"ROUTING":{"latitude":26.62604,"longitude":92.79587},"town":"Tezpur","city":"Tezpur","PHONE":"+919706080682","district":"Sonitpur","placeid":"356jx7ps-351c987048d20f0c7d2de64ba9f09d7d","name":"Bee Tee Enterprise","state":"Assam","category":"700-7250-0136","MOBILE":"+919706080682"}
{"DISPLAY":{"latitude":20.9323055,"longitude":85.5493993},"ROUTING":{"latitude":20.9323055,"longitude":85.5493993},"town":"Kamakshya Nagar","city":"Kamakshya Nagar","district":"Dhenkanal","placeid":"356tgsz4-735374ea2d7f4cb5b7de4c089c32f800","name":"Mourya Photo Studio","state":"Odisha","category":"700-7400-0144"}
{"DISPLAY":{"latitude":28.5983867,"longitude":77.0922513},"ROUTING":{"latitude":28.5983867,"longitude":77.0922513},"town":"Nasirpur","city":"New Delhi","district":"South West","placeid":"356ttnfd-20a518a1e1914d60979e6eb209f00d02","name":"Dda Park 30 Fota Park","state":"Delhi","category":"550-5510-0204","MOBILE":"+919811375051"}
{"OTHER":"http://www.facebook.com/183195652208598","ROUTING":{"latitude":32.90804,"longitude":75.11068},"town":"Udhampur","city":"Udhampur","street":"P. T. A. Road","district":"Udhampur","placeid":"356jx7ps-2e5f148e052000679f37c4f66b342113","name":"Sharma Cafeteria","state":"Jammu & Kashmir","category":"600-6300-0067"}
{"DISPLAY":{"latitude":28.38916,"longitude":77.28798},"ROUTING":{"latitude":28.38919,"longitude":77.28798},"town":"New Indl Township 2","city":"Faridabad","district":"Faridabad","placeid":"356jx7ps-243fb45db6a8088f89fd63bac5eff3ae","name":"Sai Vatika Aircon","state":"Haryana","category":"700-7200-0275","MOBILE":"+919811547744"}
{"DISPLAY":{"latitude":23.2190189,"longitude":79.6853008},"ROUTING":{"latitude":23.21902,"longitude":79.6853},"city":"Patan","district":"Jabalpur","placeid":"356jx7ps-b8e45625b03a0cef163ad3412ac5ad4d","name":"Mihgawan","state":"Madhya Pradesh","category":"900-9100-0214"}
{"DISPLAY":{"latitude":23.87341,"longitude":87.7866503},"ROUTING":{"latitude":23.87341,"longitude":87.78665},"city":"Labpur","district":"Birbhum","placeid":"356jx7ps-ad7d22a0c66a0164faaf056914888b89","name":"Murdighi","state":"West Bengal","category":"900-9100-0214"}
{"DISPLAY":{"latitude":25.4425883,"longitude":75.6413093},"ROUTING":{"latitude":25.4425883,"longitude":75.6413093},"town":"Gurunanak Colony","city":"Bundi","district":"Bundi","placeid":"356xjxn4-09fc41c1dd1a008e707c8f10ad6e7773","name":"Masheed Bhai Cotton Store","state":"Rajasthan","category":"600-6800-0000"}
{"OTHER":"http://www.facebook.com/716543051820907","DISPLAY":{"latitude":17.4978363,"longitude":78.3919297},"ROUTING":{"latitude":17.4978363,"longitude":78.3919297},"town":"Kphb Colony","city":"Hyderabad","PHONE":"+919081819999","district":"Medchal Malkajgiri","placeid":"356tepex-6b984d8223ee4749aac1a2e13b7d87e5","name":"Theiosz Drive in","state":"Telangana","category":"100-1000-0009"}
{"DISPLAY":{"latitude":26.9555292,"longitude":81.9870303},"ROUTING":{"latitude":26.9555292,"longitude":81.9870303},"city":"Tarabganj","district":"Gonda","placeid":"356tuf33-3fee7ecc383c45b3a5e35c8087113ebc","name":"Zameendra Building Material Store","state":"Uttar Pradesh","category":"600-6600-0077"}
{"DISPLAY":{"latitude":28.483556,"longitude":77.2946685},"ROUTING":{"latitude":28.483556,"longitude":77.2946685},"town":"Lakkadpur","city":"Faridabad","district":"Faridabad","placeid":"356ttnfn-515222c8fc544928967e51454f1c1775","name":"Maddeshia Store","state":"Haryana","category":"600-6900-0096"}
{"DISPLAY":{"latitude":24.55219,"longitude":73.70758},"ROUTING":{"latitude":24.55217,"longitude":73.70752},"town":"Savina","city":"Udaipur","street":"Jaisamand Road","district":"Udaipur","placeid":"356jx7ps-05422f4242df0d5404b52415c47f724a","name":"Mahi Computers","state":"Rajasthan","category":"600-6500-0075","MOBILE":"+919829957404"}
{"DISPLAY":{"latitude":26.94929,"longitude":75.80583},"ROUTING":{"latitude":26.94929,"longitude":75.80583},"town":"Shastri Nagar","city":"Jaipur","district":"Jaipur","placeid":"356tsvcm-84e6be1b4dd64cb48e03a5617378f425","name":"Bittu bangles","state":"Rajasthan","category":"600-6900-0096"}
{"ROUTING":{"latitude":13.09959,"longitude":80.23069},"town":"Ayanavaram","city":"Chennai","street":"Portious Road","district":"Chennai","placeid":"356jx7ps-4756d67144600005034a4dde11f6a68f","name":"Iyyappa Hot Chips","state":"Tamil Nadu","category":"600-6300-0244"}
{"OTHER":"http://www.facebook.com/1657183714551818","DISPLAY":{"latitude":19.3018056,"longitude":84.7889105},"ROUTING":{"latitude":19.3018056,"longitude":84.7889105},"town":"Gandhi Nagar","city":"Brahmapur","PHONE":"+917978961740","district":"Ganjam","placeid":"356tgkmc-fc48913b6597438690d3f3854038c226","name":"Ammu's Professional Beauty Spa","WEBADDRESS":"http://www.ammusbeautyspa.com","state":"Odisha","category":"700-7400-0292"}
{"ROUTING":{"latitude":19.07296,"longitude":73.00849},"town":"Vashi","city":"Navi Mumbai","district":"Thane","placeid":"356te7ut-c436a5358f074030b150cb3cfa8e8be6","name":"Shree Ram Sahakari Patsanstha-Vashi Branch","state":"Maharashtra","category":"700-7000-0107"}
{"DISPLAY":{"latitude":28.6534359,"longitude":77.1186582},"ROUTING":{"latitude":28.6534359,"longitude":77.1186582},"town":"Rajouri Garden","city":"New Delhi","PHONE":"+911142137802","district":"West","placeid":"356ttng4-cb6222d4dc02418dac0fe970c97b11d7","name":"In and Out","state":"Delhi","category":"600-6800-0000"}
{"DISPLAY":{"latitude":28.60617,"longitude":77.09097},"ROUTING":{"latitude":28.60618,"longitude":77.09097},"town":"Sagarpur","city":"New Delhi","district":"South West","placeid":"356ttnfd-5a17ef5035e64a0b9cd4c5acded7eb15","name":"Sharma Properties","state":"Delhi","category":"700-7250-0136"}
{"OTHER":"http://www.facebook.com/2087852501436390","DISPLAY":{"latitude":15.8400633,"longitude":74.5108969},"ROUTING":{"latitude":15.8400633,"longitude":74.5108969},"town":"Hindwadi","city":"Belagavi","district":"Belagavi","placeid":"356tdufp-2775f0b71c184c0b90e4998871f4b6c7","name":"Desi Dhaba","state":"Karnataka","category":"100-1000-0009"}
{"DISPLAY":{"latitude":11.04183,"longitude":76.98192},"ROUTING":{"latitude":11.04175,"longitude":76.98164},"town":"Ganapathypudur","city":"Coimbatore","PHONE":"+914222539211","district":"Coimbatore","placeid":"356t9ywz-e37b0660e4364e2989ed5297e096445e","name":"Sabari Minerals","state":"Tamil Nadu","category":"700-7200-0256"}
{"ROUTING":{"latitude":31.21856,"longitude":75.78463},"town":"Subhash Nagar","city":"Phagwara","PHONE":"+911824270739","district":"Kapurthala","placeid":"356jx7ps-f7cc1da95bc40196015587ce3c48aae6","name":"New BGS Senior Secondary School","state":"Punjab","category":"800-8200-0174"}
{"DISPLAY":{"latitude":19.1434938,"longitude":73.0158378},"ROUTING":{"latitude":19.1434938,"longitude":73.0158378},"town":"Rabale","city":"Navi Mumbai","district":"Thane","placeid":"356te7uv-be6f244b4bfb461989a0da390038ba02","name":"Oriental Metal Fabrications","state":"Maharashtra","category":"900-9200-0218"}
{"DISPLAY":{"latitude":26.7740417,"longitude":83.0700103},"ROUTING":{"latitude":26.7740417,"longitude":83.0700103},"town":"Khalilabad","city":"Khalilabad","PHONE":"+918099038340","district":"Sant Kabir Nagar","placeid":"356tug06-5fc687f77c8f4a6ebcc5693ecc4956ba","name":"Maa Samay Clinic","state":"Uttar Pradesh","category":"800-8000-0000"}
{"ROUTING":{"latitude":22.66762,"longitude":88.3934},"town":"Belgharia","city":"Kolkata","PHONE":"+913325412508","district":"North Twenty Four Parganas","placeid":"356jx7ps-0401f0c5a44e0caef77c753f2a34c846","name":"Saraswati Sishu Mandir","state":"West Bengal","category":"800-8200-0174"}
{"OTHER":"http://www.facebook.com/2764830253655707","DISPLAY":{"latitude":21.3868588,"longitude":78.921441},"ROUTING":{"latitude":21.3868588,"longitude":78.921441},"town":"Saoner","city":"Saoner","district":"Nagpur","placeid":"356tgb1e-6e97f9785b18419fb1566ca1c2e10943","name":"Ak Mushroom's","state":"Maharashtra","category":"600-6900-0000"}
{"DISPLAY":{"latitude":25.3337338,"longitude":82.4644125},"ROUTING":{"latitude":25.3337338,"longitude":82.4644125},"town":"Gyanpur","city":"Aurai","district":"Sant Ravidas Nagar (Bhadohi)","placeid":"356tud8h-ebad265b086341cc85c19ca2b9f13de7","name":"Mishra Medical Store","state":"Uttar Pradesh","category":"600-6400-0070"}
{"DISPLAY":{"latitude":26.7752757,"longitude":79.0260975},"ROUTING":{"latitude":26.7752757,"longitude":79.0260975},"town":"Tikonia","city":"Etawah","PHONE":"+915688257997","district":"Etawah","placeid":"3561r4ve-b4c21514a6a10ad70779bc40d5298895","name":"Pankus Digital Studio","state":"Uttar Pradesh","category":"700-7400-0144"}
{"ROUTING":{"latitude":19.11147,"longitude":72.86016},"town":"Andheri East","city":"Mumbai","street":"A G Link Road","district":"Mumbai Suburban","placeid":"356jx7ps-6baa8eda12510aea78f384ff91254db8","name":"Ask Corporation","state":"Maharashtra","category":"700-7250-0136"}
{"DISPLAY":{"latitude":25.788678,"longitude":84.411594},"ROUTING":{"latitude":25.78867,"longitude":84.41159},"city":"Bairia","district":"Ballia","placeid":"356jx7ps-ef99e2b522d00851355f58ed8f9ac1da","name":"Balihar","state":"Uttar Pradesh","category":"900-9100-0214"}
{"DISPLAY":{"latitude":22.6435136,"longitude":88.3346687},"ROUTING":{"latitude":22.6435136,"longitude":88.3346687},"town":"Bally","city":"Howrah","district":"Haora","placeid":"356tunbf-f8fe82b087eb4501b6113f777ea9336f","name":"Sukalpa Stationery","state":"West Bengal","category":"600-6900-0096"}
{"OTHER":"http://www.facebook.com/242907235908452","DISPLAY":{"latitude":10.0874408,"longitude":76.3236182},"ROUTING":{"latitude":10.0874408,"longitude":76.3236182},"town":"Muppathadam","city":"Paravur","district":"Ernakulam","placeid":"356t9y32-706d569697d6407fbff82a9dee72bd54","name":"Kannoth Temple","state":"Kerala","category":"300-3200-0031"}
{"ROUTING":{"latitude":9.34317,"longitude":76.57973},"city":"Chengannur","district":"Alappuzha","placeid":"356jx7ps-3106c578b03d022385c0613fd098524b","name":"Thiruvanvandoor Temple","state":"Kerala","category":"300-3200-0000"}
{"DISPLAY":{"latitude":18.95281,"longitude":72.83012},"ROUTING":{"latitude":18.95283,"longitude":72.83011},"town":"Kalbadevi","city":"Mumbai","street":"Kalbadevi Road","district":"Mumbai","placeid":"356te7gc-6f09b5deb50045d2ae267af75e2625d0","name":"Lallu bhai ambaram","state":"Maharashtra","category":"600-6900-0096"}
{"DISPLAY":{"latitude":32.70085,"longitude":74.89243},"ROUTING":{"latitude":32.70085,"longitude":74.89243},"town":"Channi Rama","city":"Jammu","district":"Jammu","placeid":"356jx7ps-3d8f47cd5ef201a07736c971040006d7","name":"Pamposh Kalonee","state":"Jammu & Kashmir","category":"900-9100-0215"}
{"DISPLAY":{"latitude":26.79772,"longitude":80.88538},"ROUTING":{"latitude":26.79773,"longitude":80.88536},"town":"Krishna Nagar","city":"Lucknow","street":"Gopal Nagar Road","district":"Lucknow","placeid":"356tuc82-1fbbd065f3924c28be7778f4b86cf563","name":"Maa Durge General Store","state":"Uttar Pradesh","category":"600-6300-0064","MOBILE":"+919451062626"}
{"DISPLAY":{"latitude":19.20533,"longitude":72.84602},"ROUTING":{"latitude":19.20519,"longitude":72.84597},"town":"Kandivali West","city":"Mumbai","district":"Mumbai Suburban","placeid":"356te7v3-0f8ce832f4034bcdaaa762f5f9b51bbe","name":"Ropan Glass House","state":"Maharashtra","category":"600-6900-0096","MOBILE":"+919920340718"}
{"DISPLAY":{"latitude":25.00718,"longitude":88.14583},"ROUTING":{"latitude":25.00718,"longitude":88.14583},"town":"English Bazar","city":"English Bazar","street":"Binay Sarkar Road","district":"Maldah","placeid":"356jx7ps-fecb0c9a24e30fff884654280961b0ac","name":"Maa Jagyeswari Basunalaya","state":"West Bengal","category":"600-6600-0078"}
{"ROUTING":{"latitude":18.61998,"longitude":79.38923},"town":"Peddapalle","city":"Peddapalle","district":"Peddapalle","placeid":"356jx7ps-14988ebaf1250940cb09ace1d39421d2","name":"Sri Jyothi Traders","state":"Telangana","category":"700-7850-0000"}
{"DISPLAY":{"latitude":22.46734,"longitude":88.3205},"ROUTING":{"latitude":22.46735,"longitude":88.32043},"town":"Thakur Pukur","city":"Kolkata","district":"South Twenty Four Parganas","placeid":"356tgyzc-3bbfae2141194600b32fe3ace4a04fe6","name":"Gupta Fuel Center","state":"West Bengal","category":"700-7600-0116"}
{"ROUTING":{"latitude":22.56269,"longitude":72.95995},"town":"Anand","city":"Anand","street":"Bhaleg Road","district":"Anand","placeid":"356jx7ps-3d8b66a04a360ec837f26bb2c7b58ed3","name":"Aman Children Hospital-ER","state":"Gujarat","category":"800-8000-0325"}
{"DISPLAY":{"latitude":9.52869,"longitude":76.5147166},"ROUTING":{"latitude":9.52869,"longitude":76.5147166},"city":"Kottayam Sub-District","district":"Kottayam","placeid":"356t9wqj-bf4b266077304df29e43c68e88c3b882","name":"Pallom Post Office Junction Bus Stop","state":"Kerala","category":"400-4100-0036"}
{"OTHER":"http://www.facebook.com/1942962865919312","DISPLAY":{"latitude":19.3018056,"longitude":84.7889105},"ROUTING":{"latitude":19.3018056,"longitude":84.7889105},"town":"Gandhi Nagar","city":"Brahmapur","PHONE":"+918596828555","district":"Ganjam","placeid":"356tgkmc-ae72eae533454717b5361ade713bf9f6","name":"Kerala Ayurvedic Health Care","state":"Odisha","category":"700-7400-0292"}
{"ROUTING":{"latitude":21.52892,"longitude":70.45081},"town":"Junagadh","city":"Junagadh","street":"Shahid Vijay Marg","PHONE":"+912852655151","district":"Junagadh","placeid":"356jx7ps-e64ef49485cd0da9163bd253f2039850","name":"The Future Computer Science College","state":"Gujarat","category":"800-8200-0173","MOBILE":"+919428212349"}
{"OTHER":"http://www.facebook.com/1595316277347393","DISPLAY":{"latitude":13.0822255,"longitude":80.216547},"ROUTING":{"latitude":13.0822255,"longitude":80.216547},"town":"Anna Nagar","city":"Chennai","PHONE":"+914423621404","district":"Chennai","placeid":"356httek-52b2d6b8b2d60aeea6f88cdbfba10675","name":"Mocha Blu","WEBADDRESS":"http://mochablu.in","state":"Tamil Nadu","category":"100-1000-0000"}
{"DISPLAY":{"latitude":18.51636,"longitude":73.85101},"ROUTING":{"latitude":18.51644,"longitude":73.85101},"town":"Shaniwar Peth","city":"Pune","street":"N C Kelkar Road","PHONE":"+912024451429","district":"Pune","placeid":"356jx7ps-ef75ce495fae0d3474c82eacf422fad5","name":"Shakuntal Hall","state":"Maharashtra","category":"700-7250-0136"}
{"DISPLAY":{"latitude":17.33924,"longitude":76.82886},"ROUTING":{"latitude":17.33924,"longitude":76.82886},"town":"Sangameshwar Colony","city":"Kalaburagi","district":"Kalaburagi","placeid":"356tends-5ceefddfbfc44ae5bc4b0d3450ba7917","name":"Iqbal Ali Manzil","state":"Karnataka","category":"900-9300-0221"}
{"ROUTING":{"latitude":22.58756,"longitude":88.40851},"town":"Salt Lake","city":"Kolkata","district":"North Twenty Four Parganas","placeid":"356jx7ps-3e19badbde90098a852a7f0d30e6929c","name":"Vibgyor World","state":"West Bengal","category":"600-6800-0000"}
{"ROUTING":{"latitude":28.48807,"longitude":77.06906},"town":"Sector 18","city":"Gurugram","district":"Gurugram","placeid":"356jx7ps-4669baacbc4202f5f1f6bcf372484606","name":"Singh General Store","state":"Haryana","category":"600-6300-0066","MOBILE":"+919650774762"}
{"DISPLAY":{"latitude":30.745799,"longitude":75.6466341},"ROUTING":{"latitude":30.745799,"longitude":75.6466341},"city":"Raikot Sub-District","district":"Ludhiana","placeid":"3561r4ve-c8113f84861906849259b8f26a8dbd7a","name":"Delhi Hair Saloon","state":"Punjab","category":"600-6950-0000"}
{"DISPLAY":{"latitude":15.7664711,"longitude":75.1083221},"ROUTING":{"latitude":15.7664711,"longitude":75.1083221},"town":"Saundattiyellamma","city":"Parasgad","district":"Belagavi","placeid":"356tdv3t-13556be7ec024a008c82c6674cfe053f","name":"Mayur S Karadagi","state":"Karnataka","category":"700-7400-0327"}
{"DISPLAY":{"latitude":8.973785,"longitude":77.2489173},"ROUTING":{"latitude":8.973785,"longitude":77.2489173},"town":"Shenkottai","city":"Shenkottai","district":"Tirunelveli","placeid":"356t9wgj-6c45c3c92e864201b4f93613e74d87dc","name":"Ration Shop","state":"Tamil Nadu","category":"600-6300-0066"}
{"DISPLAY":{"latitude":13.01467,"longitude":77.54279},"ROUTING":{"latitude":13.01468,"longitude":77.54279},"town":"Nandini Layout","city":"Bengaluru","street":"3rd Cross Road","PHONE":"+918032481939","district":"Bengaluru","placeid":"356jx7ps-2fe2a8fa7de40f083f5d07f60749f9ea","name":"Adithya Id Card Services","state":"Karnataka","category":"700-7250-0136"}
{"DISPLAY":{"latitude":21.7525868,"longitude":72.1527602},"ROUTING":{"latitude":21.7525868,"longitude":72.1527602},"town":"Bhavnagar","city":"Bhavnagar","district":"Bhavnagar","placeid":"356xjxn4-8ae0b89a8b220a8cc3bada93caefa3a5","name":"Santram General","state":"Gujarat","category":"600-6000-0061"}
{"DISPLAY":{"latitude":9.3226289,"longitude":76.6238054},"ROUTING":{"latitude":9.3226289,"longitude":76.6238054},"town":"Chengannur","city":"Chengannur","district":"Alappuzha","placeid":"356t9wmp-3ad821d7870a43488755d78e5a4122e4","name":"Usha Nursing Home","state":"Kerala","category":"800-8000-0000"}
{"DISPLAY":{"latitude":19.15208,"longitude":73.23559},"ROUTING":{"latitude":19.15203,"longitude":73.23566},"town":"Badlapur East","city":"Badlapur","district":"Thane","placeid":"356tekhf-00d8ff9ef1124ae58bd2688292cb55b2","name":"Megha Ladies Tailor","state":"Maharashtra","category":"700-7400-0149"}
{"ROUTING":{"latitude":19.17651,"longitude":73.02273},"town":"Mumbra","city":"Thane","street":"Mumbai Pune Road","district":"Thane","placeid":"356te7vj-7a6ff15482d64262a65eef324cea9bca","name":"Alif","state":"Maharashtra","category":"202-000","MOBILE":"+919224082456"}
{"DISPLAY":{"latitude":30.91153,"longitude":75.85429},"ROUTING":{"latitude":30.91147,"longitude":75.85425},"town":"Kesar Ganj","city":"Ludhiana","street":"Brown Road","district":"Ludhiana","placeid":"356ttmzy-b261153f14284f7d95db4fc237cf6f33","name":"Dada durniture","state":"Punjab","category":"600-6600-0077"}
{"OTHER":"http://www.facebook.com/587642761255116","DISPLAY":{"latitude":27.4886103,"longitude":94.5741053},"ROUTING":{"latitude":27.4886103,"longitude":94.5741053},"town":"Dhemaji","city":"Dhemaji","district":"Dhemaji","placeid":"356httek-1edca02a752c009d2bd9e4209c14dce8","name":"Kiran Academy, Dhemaji","WEBADDRESS":"http://www.kiranacademydmj.in","state":"Assam","category":"800-8200-0174"}
{"ROUTING":{"latitude":25.15559,"longitude":72.01881},"city":"Bagora","street":"Khari Road Bhinmal","district":"Jalor","placeid":"356jx7ps-6291e6eb1dfb0d0286ad65a5a0c6c32b","name":"Rajkiya Madhyamik Vidyalaya","state":"Rajasthan","category":"800-8200-0174"}
{"DISPLAY":{"latitude":12.91966,"longitude":77.56923},"ROUTING":{"latitude":12.91967,"longitude":77.56918},"town":"Banashankari","city":"Bengaluru","street":"9th Main Road","district":"Bengaluru","placeid":"356jx7ps-4fa550679870072a630adabb48ce25f4","name":"G. S. Residency Post Executive PG Men","state":"Karnataka","category":"500-5100-0055","MOBILE":"+919036844588"}
{"OTHER":"http://www.facebook.com/1341468372544384","DISPLAY":{"latitude":22.32423,"longitude":73.20329},"ROUTING":{"latitude":22.32414,"longitude":73.20321},"town":"Karelibaug","city":"Vadodara","PHONE":"+919712933311","district":"Vadodara","placeid":"356teup1-4d92b680ae4948dcb6665ece123caedd","name":"Car Hub","state":"Gujarat","category":"700-7850-0123"}
{"DISPLAY":{"latitude":28.5847,"longitude":78.57634},"ROUTING":{"latitude":28.5847,"longitude":78.57634},"town":"Sambhal","city":"Sambhal","district":"Sambhal","placeid":"356xjxn4-243f81daba170378246fa52c5d4cbb8d","name":"Brother Motors","state":"Uttar Pradesh","category":"700-7850-0000"}
{"DISPLAY":{"latitude":19.186831024,"longitude":73.205801582},"ROUTING":{"latitude":19.18706,"longitude":73.20589},"town":"Ambernath East","city":"Ambarnath","district":"Thane","placeid":"356tekj1-0e5f136948f241f5a6f29cf532c7bc63","name":"samarth ELECTRONICS","state":"Maharashtra","category":"600-6500-0072"}
{"ROUTING":{"latitude":23.21754,"longitude":87.87577},"town":"Kanainat Shal","city":"Bardhaman","district":"Barddhaman","placeid":"356jx7ps-7d59d6152ff40cfafd44e7db48a22dd3","name":"Nanivila","state":"West Bengal","category":"900-9300-0221"}
{"DISPLAY":{"latitude":27.428349,"longitude":82.1836185},"ROUTING":{"latitude":27.428349,"longitude":82.1836185},"town":"Jwala Nagar","city":"Balrampur","district":"Balrampur","placeid":"356tufkn-645123f7ad5b441593f44c44bfc1651f","name":"Shiva Communications","state":"Uttar Pradesh","category":"700-7250-0136"}
{"ROUTING":{"latitude":29.00141,"longitude":77.01891},"town":"Jamalpura","city":"Sonipat","district":"Sonipat","placeid":"356jx7ps-c309fb57825e02006cb436efc0224ec1","name":"Mehar Cosmetic","state":"Haryana","category":"600-6900-0096"}
{"OTHER":"http://www.facebook.com/682493788513843","DISPLAY":{"latitude":26.84957,"longitude":75.81549},"ROUTING":{"latitude":26.84954,"longitude":75.8155},"town":"Malviya Nagar","city":"Jaipur","PHONE":"+919672983297","district":"Jaipur","placeid":"356tsvbt-8fdff30af10040d3a8bf788f9185d589","name":"Now & Ever","WEBADDRESS":"http://www.indiamart.com/theroyal-store/","state":"Rajasthan","category":"600-6600-0078"}
{"DISPLAY":{"latitude":23.235622,"longitude":88.339644},"ROUTING":{"latitude":23.235622,"longitude":88.339644},"town":"Uttar Goara","city":"Kalna-I","district":"Barddhaman","placeid":"3561r4ve-75acacaa1fad073ace4740f47f501881","name":"Doctors Chamber","state":"West Bengal","category":"800-8000-0155"}
{"DISPLAY":{"latitude":13.05023,"longitude":80.18293},"ROUTING":{"latitude":13.0504,"longitude":80.1829},"town":"Alwarthirunagar","city":"Chennai","district":"Chennai","placeid":"356tf340-f09ce04fb5c8423cbb8e88f12cfa571d","name":"Rural Dev Society","state":"Tamil Nadu","category":"700-7400-0147"}
{"ROUTING":{"latitude":18.64154,"longitude":73.77626},"town":"Chinchwad Gaon","city":"Chinchwad","district":"Pune","placeid":"356jx7ps-899f43f598610676fa58dbbe54ac0969","name":"Yashbindu","state":"Maharashtra","category":"900-9300-0221"}
{"DISPLAY":{"latitude":28.9636975,"longitude":77.6857422},"ROUTING":{"latitude":28.9636975,"longitude":77.6857422},"town":"Transport Nagar","city":"Meerut","PHONE":"+911212421791","district":"Meerut","placeid":"356ttphz-e66c9064033b4d17938688a6729dc6d3","name":"Royal Sales Coorporation","state":"Uttar Pradesh","category":"800-8000-0000"}
{"DISPLAY":{"latitude":15.1451944,"longitude":76.9271205},"ROUTING":{"latitude":15.1451944,"longitude":76.9271205},"town":"Satyanarayana Pet","city":"Ballari","district":"Ballari","placeid":"356tdwwn-c893e93dd8c547ad9f47037e2bab0837","name":"Shri Ranganatha Consultancy","state":"Karnataka","category":"700-7400-0141"}
{"DISPLAY":{"latitude":13.05471,"longitude":80.2303},"ROUTING":{"latitude":13.05484,"longitude":80.23031},"town":"Kodambakkam","city":"Chennai","street":"1st Street","district":"Chennai","placeid":"356jx7ps-1f4443baf1030ccf492959104ae2fe2a","name":"Sithara","state":"Tamil Nadu","category":"900-9300-0221"}
{"DISPLAY":{"latitude":28.5052885,"longitude":77.3890001},"ROUTING":{"latitude":28.5052885,"longitude":77.3890001},"town":"Sector 135","city":"Noida","district":"Gautam Buddha Nagar","placeid":"356ttp41-0eb86a8459764635a781d325d703e951","name":"Jaypee Klassic Shaurya","state":"Uttar Pradesh","category":"900-9300-0221"}
{"DISPLAY":{"latitude":23.5293046,"longitude":77.0569231},"ROUTING":{"latitude":23.5293,"longitude":77.05692},"city":"Narsinghgarh","district":"Rajgarh","placeid":"356jx7ps-9323617d87680191108b44967b236dc2","name":"Chatar Pura","state":"Madhya Pradesh","category":"900-9100-0214"}
{"ROUTING":{"latitude":21.18802,"longitude":81.28272},"town":"Motipura","city":"Durg","district":"Durg","placeid":"356jx7ps-d1290f9dcaad05ba7fd5b4980053c538","name":"Sudheer X Ray","state":"Chhattisgarh","category":"800-8000-0158"}
{"DISPLAY":{"latitude":19.2491573,"longitude":72.8624996},"ROUTING":{"latitude":19.2491573,"longitude":72.8624996},"town":"Dahisar East","city":"Mumbai","district":"Mumbai Suburban","placeid":"356te7vd-3c9f4794357d4b13a8cab4243e70fe86","name":"Reliance Communications","state":"Maharashtra","category":"600-6500-0072"}
{"DISPLAY":{"latitude":30.71451,"longitude":76.83866},"ROUTING":{"latitude":30.71437,"longitude":76.83869},"town":"Manimajra","city":"Chandigarh","district":"Chandigarh","placeid":"356ttqws-23bbf3202dfd4ad5917dc66ff832822e","name":"Gift Valley","state":"Chandigarh","category":"600-6900-0096","MOBILE":"+919815536509"}
{"DISPLAY":{"latitude":29.1587191,"longitude":75.7268294},"ROUTING":{"latitude":29.1587191,"longitude":75.7268294},"town":"Mehta Nagar","city":"Hisar","district":"Hisar","placeid":"356xjxn4-15d958dbabc2009eac5992bfb5578edb","name":"Anil Kirana Store","state":"Haryana","category":"600-6000-0061"}
{"DISPLAY":{"latitude":28.58158,"longitude":77.2472},"ROUTING":{"latitude":28.58157,"longitude":77.24719},"town":"Jangpura","city":"New Delhi","district":"South","placeid":"356ttnft-7fa76efa3ecf41c2a7eb4144069b0479","name":"Lamba Earth Movers & Contractors","state":"Delhi","category":"700-7250-0136","MOBILE":"+919810179261"}
{"DISPLAY":{"latitude":18.52294,"longitude":73.86768},"ROUTING":{"latitude":18.52292,"longitude":73.86773},"town":"Somwar Peth","city":"Pune","street":"Station Road","district":"Pune","placeid":"356jx7ps-599191841f11041fe0cf88b5db2c7be1","name":"Dr Manoj G Matnani Pediatric Nephrology Clinic","state":"Maharashtra","category":"800-8000-0000","MOBILE":"+919960130234"}
{"DISPLAY":{"latitude":12.82366,"longitude":79.70761},"ROUTING":{"latitude":12.82365,"longitude":79.70766},"town":"Small Kanchipuram","city":"Kancheepuram","street":"Vilakadi Koil Street","district":"Kancheepuram","placeid":"356jx7ps-78d8460bc4f0042cde52cccfe1ba443d","name":"S. Varathan Auto Mechanic","state":"Tamil Nadu","category":"700-7850-0000"}
{"ROUTING":{"latitude":30.55878,"longitude":76.93958},"city":"Panchkula Sub-District","street":"Barwala Road","district":"Panchkula","placeid":"356jx7ps-10c1983ffaf403c7f60a43704b697ff9","name":"Sharma Medicos","state":"Haryana","category":"600-6400-0070"}
{"ROUTING":{"latitude":9.92262,"longitude":78.1386},"town":"Shenoy Nagar","city":"Madurai","PHONE":"+914523293557","placeid":"356jx7ps-0f1bec5de8a40f0443d1101f59967b19","EMAIL":"madurai@neoteric.co.in","DISPLAY":{"latitude":9.92259,"longitude":78.13864},"street":"Jawahar Street","district":"Madurai","name":"Neoteric Infomatique","WEBADDRESS":"http://www.neoteric.co.in","state":"Tamil Nadu","category":"700-7250-0136","MOBILE":"+919842266881"}
{"ROUTING":{"latitude":9.17031,"longitude":77.87016},"town":"Shastri Nagar","city":"Kovilpatti","PHONE":"+914632221381","district":"Thoothukkudi","placeid":"356jx7ps-6aa59e7ec1f5038cef341b19ad9d092f","name":"Bank of India-Shastri Nagar","state":"Tamil Nadu","category":"700-7000-0107"}
{"DISPLAY":{"latitude":23.2593012,"longitude":77.392579},"ROUTING":{"latitude":23.2593012,"longitude":77.392579},"town":"Koh E Fiza","city":"Bhopal","district":"Bhopal","placeid":"356tsph3-90326d4715004c58982317612343feb6","name":"Paheli Kirana","state":"Madhya Pradesh","category":"600-6300-0066"}
{"DISPLAY":{"latitude":23.8507384,"longitude":72.1191102},"ROUTING":{"latitude":23.8507384,"longitude":72.1191102},"town":"Patan","city":"Patan","district":"Patan","placeid":"3561r4ve-aecbe6be68430aa70f55b2d844ee3c63","name":"Shah Valchand Bartan Bhandar","state":"Gujarat","category":"600-6900-0099"}
{"DISPLAY":{"latitude":26.89835,"longitude":80.96608},"ROUTING":{"latitude":26.8983,"longitude":80.96604},"town":"Vikas Nagar","city":"Lucknow","district":"Lucknow","placeid":"356tuc94-586f4de2da0442a88b34eebaf2b56b72","name":"Electric Workshop","state":"Uttar Pradesh","category":"700-7400-0365","MOBILE":"+919795367416"}
{"ROUTING":{"latitude":13.08301,"longitude":80.22809},"town":"Shenoy Nagar","city":"Chennai","street":"Halls Road","district":"Chennai","placeid":"356jx7ps-f39683a67b370c937b3d5124786f5ad2","name":"Sri Sastha Snacks Bar","state":"Tamil Nadu","category":"600-6900-0096"}
{"DISPLAY":{"latitude":22.6269953,"longitude":88.4421253},"ROUTING":{"latitude":22.6269953,"longitude":88.4421253},"town":"Kaikhali","city":"Kolkata","district":"North Twenty Four Parganas","placeid":"356tunbs-f9eee6a66a7d44d39025e0deeafa1394","name":"Mahanawab Mess","state":"West Bengal","category":"202-000"}
{"DISPLAY":{"latitude":17.91114,"longitude":77.52112},"ROUTING":{"latitude":17.91114,"longitude":77.52112},"town":"Gandhi Ganj","city":"Bidar","street":"SH-122","district":"Bidar","placeid":"356jx7ps-457e0908bb880ac23364be14a4e3b87f","name":"Nageswara Nadaswara Brindavan","state":"Karnataka","category":"900-9300-0221"}
{"DISPLAY":{"latitude":28.3684,"longitude":77.31464},"ROUTING":{"latitude":28.3684,"longitude":77.3147},"town":"Sector 11","city":"Faridabad","PHONE":"+911292232388","district":"Faridabad","placeid":"356ttncr-78d16a46d5854ecdaf021663c41b4e8d","name":"Dahra Engineering Company","state":"Haryana","category":"700-7200-0277","FAX":"0129 523 2247"}
{"ROUTING":{"latitude":13.59148,"longitude":79.32834},"town":"Chandragiri","city":"Chandragiri","street":"Chittoor Road","district":"Chittoor","placeid":"356jx7ps-b2cb85a8ee250c2cb017e0b3e027a972","name":"Sri Lakshmi Ganapathi Fast Food Centre","state":"Andhra Pradesh","category":"600-6300-0064"}
{"DISPLAY":{"latitude":27.1961953,"longitude":78.0018216},"ROUTING":{"latitude":27.1961953,"longitude":78.0018216},"town":"Hari Parwat","city":"Agra","PHONE":"+915624031454","district":"Agra","placeid":"356tsz6w-102a4c72776d40fda93f3c588a00c35d","name":"Agra Corner Point","state":"Uttar Pradesh","category":"202-000"}
{"DISPLAY":{"latitude":25.58522,"longitude":85.18806},"ROUTING":{"latitude":25.58523,"longitude":85.18806},"town":"Agam Kuan","city":"Patna","street":"Service Road","district":"Patna","placeid":"356tus9d-9a600918fb8f4db080d30d2a656a3835","name":"Maa Sharda Furniture","state":"Bihar","category":"600-6600-0080"}
{"ROUTING":{"latitude":17.38238,"longitude":78.4727},"town":"Goshamahal","city":"Hyderabad","street":"NH-9","PHONE":"+914024732335","district":"Hyderabad","placeid":"356tepfc-750275f41b594eceade887bf21130cb4","name":"Kanchan Plywood Sales","state":"Telangana","category":"600-6600-0077"}
{"DISPLAY":{"latitude":18.48803,"longitude":73.9391},"ROUTING":{"latitude":18.48803,"longitude":73.9391},"town":"Hadapsar","city":"Pune","street":"Late Marutrao Sopanrao Kale Path","district":"Pune","placeid":"356jx7ps-a9f7dfcd83ee0f92b332d5be75f3b57b","name":"Raskar Villa","state":"Maharashtra","category":"900-9300-0221"}
{"ROUTING":{"latitude":28.81694,"longitude":79.88745},"town":"Gulariya Bhindara","city":"Pilibhit Sub-District","street":"SH-29","district":"Pilibhit","placeid":"356jx7ps-36fe82485d510cade46e2dbf8848f710","name":"Sri Balaji Fashion","state":"Uttar Pradesh","category":"600-6800-0091"}
{"DISPLAY":{"latitude":28.63392,"longitude":77.35114},"ROUTING":{"latitude":28.63392,"longitude":77.35116},"town":"Indirapuram","city":"Ghaziabad","district":"Ghaziabad","placeid":"3561r4ve-4a6a50f262600c07de1136e9e01d1190","name":"Sharan Beauty Parlour","state":"Uttar Pradesh","category":"600-6950-0000"}
{"DISPLAY":{"latitude":24.6231314,"longitude":76.709361},"ROUTING":{"latitude":24.6231314,"longitude":76.709361},"town":"Chhipabarod","city":"Chhipabarod","district":"Baran","placeid":"3561r4ve-c57ab9d1fbb30b02a9b2fc1fb0d6cbfb","name":"Harsh Tailors","state":"Rajasthan","category":"700-7400-0149"}
