{"country":"IND","ROUTING":{"latitude":23.02694,"longitude":72.58131},"town":"Lal Darwaja","city":"Ahmedabad","PHONE":"+912795507110","placeid":"356ts5dg-d3683cc1b7ff4681af4251084acb2b17","OTHER":"http://www.facebook.com/137835002904847","street":"Mirzapur Road","district":"Ahmedabad","name":"Sidi Saiyad Mosque","WEBADDRESS":"http://ar.wikipedia.org/wiki/","state":"Gujarat","category":"300-3000-0000"}
{"country":"IND","DISPLAY":{"latitude":25.1851905,"longitude":90.3416954},"ROUTING":{"latitude":25.18519,"longitude":90.34169},"city":"Gasuapara","district":"South Garo Hills","placeid":"356jx7ps-94fad613949c0f7ab733dcefce7138ca","name":"Gasuapara/Bangladesh","state":"Meghalaya","category":"800-8100-0172"}
{"OTHER":"http://www.facebook.com/135956330436068","country":"IND","ROUTING":{"latitude":23.06033,"longitude":72.5801},"town":"Juna Vadaj","city":"Ahmedabad","street":"Ashram Road","district":"Ahmedabad","placeid":"356ts5e5-cd55a0c737074ce7bb80d87f19e2d0e1","name":"Sabarmati Ashram","state":"Gujarat","category":"700-7400-0147"}
{"country":"IND","DISPLAY":{"latitude":26.5208076,"longitude":86.9527632},"ROUTING":{"latitude":26.52081,"longitude":86.95276},"town":"Bhimnagar","city":"Basantpur","street":"Birpur-Madhepura-Birpur Road","district":"Supaul","placeid":"356jx7ps-c80c421173c60ac004c7b79a49df48c7","name":"Kunauli/Basantpur/Nepal","state":"Bihar","category":"800-8100-0172"}
{"country":"IND","ROUTING":{"latitude":19.23146,"longitude":72.86374},"town":"Borivali East","city":"Mumbai","street":"Kanheri Caves Road","district":"Mumbai Suburban","placeid":"356te7v6-122a60df092541b88fb384756f09e8de","name":"Kanheri Caves","state":"Maharashtra","category":"300-3000-0023"}
{"country":"IND","ROUTING":{"latitude":26.89318,"longitude":75.81692},"town":"Tilak Nagar","city":"Jaipur","street":"Jyoti Marg","district":"Jaipur","placeid":"356tsvbv-02163c20b2bf469a9c1aedb4ffe592ae","name":"Moti Dungri Fort","state":"Rajasthan","category":"300-3000-0025"}
{"country":"IND","ROUTING":{"latitude":30.36646,"longitude":73.88525},"city":"Fazilka Sub-District","street":"NH-10","district":"Fazilka","placeid":"356jx7ps-b0f8366640cf02608f6f36d97748f0aa","name":"Fazilka Sub-District/Sulemanki/NH-10/Pakistan","state":"Punjab","category":"800-8100-0172"}
{"country":"IND","ROUTING":{"latitude":23.05466,"longitude":72.59206},"town":"Shahibaug","city":"Ahmedabad","PHONE":"+917922868172","placeid":"356ts5e5-72810efc478a4edeb81cd5b51e274f7f","EMAIL":"info@calicomuseum.com","OTHER":"http://www.facebook.com/133317383374562","DISPLAY":{"latitude":23.05461,"longitude":72.59219},"street":"Shahibaug Police Station Road","district":"Ahmedabad","name":"Calico Museum of Textiles","WEBADDRESS":"http://calicomuseum.org/","state":"Gujarat","category":"300-3000-0000","FAX":"079 2286 5759","MOBILE":"+917922868172"}
{"country":"IND","ROUTING":{"latitude":19.22825,"longitude":72.80488},"town":"Borivali West","city":"Mumbai","district":"Mumbai Suburban","placeid":"356te7v2-ac0d50ea8b7c4b91b4012b83a84c9c0d","name":"Global Pagoda","state":"Maharashtra","category":"300-3200-0030"}
{"OTHER":"http://www.facebook.com/1738552779763940","country":"IND","ROUTING":{"latitude":28.65596,"longitude":77.23694},"town":"Chandni Chowk","city":"New Delhi","PHONE":"+917500395694","district":"Central","placeid":"356ttngj-12caaccca8214effb808d05774a875e5","name":"Red Phort","WEBADDRESS":"http://asi.nic.in/hayat-bakhsh-garden-and-pavilions/","state":"Delhi","category":"300-3000-0000"}
{"country":"IND","ROUTING":{"latitude":22.58195,"longitude":88.36043},"town":"Jorasanko","city":"Kolkata","PHONE":"+913322693310","district":"Kolkata","placeid":"356tunb6-ea1e2cd3ea864e318573eb6e15f5c208","name":"Marble Palace","WEBADDRESS":"http://www.doibedouin.com/2018/09/5-unusual-places-to-visit-in-north.html","state":"West Bengal","category":"300-3000-0000"}
{"country":"IND","ROUTING":{"latitude":18.92651,"longitude":72.8315},"town":"Fort","city":"Mumbai","PHONE":"+912222844484","placeid":"356te7g9-7ee6689e4cde41a9a109fd0343bef035","OTHER":"http://www.facebook.com/105789782794855","street":"Esplanade Road","district":"Mumbai","name":"Chhatrapati Shivaji Maharaj Vastu Sangrahalaya","WEBADDRESS":"http://www.csmvs.in/","state":"Maharashtra","category":"300-3000-0000"}
{"country":"IND","ROUTING":{"latitude":18.51386,"longitude":73.85379},"town":"Sadashiv Peth","city":"Pune","street":"NH-4","district":"Pune","placeid":"356tek92-20f1c3aa36f44b76b99b99e1e1a3f681","name":"Vishrambaugh Wada","state":"Maharashtra","category":"300-3000-0023"}
{"country":"IND","DISPLAY":{"latitude":26.40262,"longitude":87.26578},"ROUTING":{"latitude":26.40262,"longitude":87.26578},"town":"Jogbani","city":"Forbesganj","street":"NH-57A","district":"Araria","placeid":"356jx7ps-8cf0b67acfcc0f4cb47024723a10172a","name":"Forbesganj/Jogabani/NH-57A/Nepal","state":"Bihar","category":"800-8100-0172"}
{"country":"IND","ROUTING":{"latitude":28.62059,"longitude":77.23821},"town":"Connaught Place","city":"New Delhi","PHONE":"+911125538298","district":"New Delhi","placeid":"356jx7ps-902d71692b5301d24f60ebfe19521a34","name":"Supreme Court Museum Gate No. C","state":"Delhi","category":"300-3100-0029"}
{"OTHER":"http://www.facebook.com/390534060989678","country":"IND","ROUTING":{"latitude":26.90689,"longitude":75.80672},"town":"C-Scheme","city":"Jaipur","PHONE":"+911412385367","district":"Jaipur","placeid":"356tsvcj-c0d8833419da42b7836219e2dd0d81ce","name":"B. M. Birla Museum","WEBADDRESS":"http://www.bisr.res.in","state":"Rajasthan","category":"700-7200-0269"}
{"country":"IND","ROUTING":{"latitude":26.89919,"longitude":75.85854},"town":"Transport Nagar","city":"Jaipur","street":"Galta Road","district":"Jaipur","placeid":"356tsvcn-c5a3b5267658456bb76acd731e6dc4cd","name":"Sisodia Rani Ka Bagh-Agra Road","state":"Rajasthan","category":"300-3000-0023"}
{"country":"IND","ROUTING":{"latitude":28.64076,"longitude":77.24695},"town":"Raj Ghat","city":"New Delhi","street":"Mahatma Gandhi Marg","PHONE":"+911125675609","district":"Central","placeid":"356ttnfv-c9698529a85e4685b230ccaf35656ae3","name":"Raj Ghat","WEBADDRESS":"http://www.delhitourism.gov.in/delhitourism/index.jsp","state":"Delhi","category":"300-3000-0000"}
{"country":"IND","ROUTING":{"latitude":26.64302,"longitude":88.16635},"city":"Kharibari","street":"AH2","district":"Darjiling","placeid":"356jx7ps-9d3495d96a67090b1619e24c2af29283","name":"Naxalbari/Nepal","state":"West Bengal","category":"800-8100-0172"}
{"country":"IND","DISPLAY":{"latitude":25.28116,"longitude":89.00718},"ROUTING":{"latitude":25.28116,"longitude":89.00718},"city":"Hilli","street":"SH-10","district":"Dakshin Dinajpur","placeid":"356jx7ps-2454b344677605c8ee66a3405d13921e","name":"Hilli/SH-10/Bangladesh","state":"West Bengal","category":"800-8100-0172"}
{"country":"IND","ROUTING":{"latitude":28.62834,"longitude":77.21661},"town":"Connaught Place","city":"New Delhi","PHONE":"+911123365358","district":"New Delhi","placeid":"356ttnfv-a459b54dad074c389376c0cd82d89ab2","name":"Jantar Mantar","WEBADDRESS":"http://www.delhitourism.gov.in/delhitourism/tourist_place/jantar_mantar.jsp","state":"Delhi","category":"300-3000-0000"}
{"country":"IND","DISPLAY":{"latitude":26.90224,"longitude":75.81949},"ROUTING":{"latitude":26.90224,"longitude":75.81944},"town":"Adarsh Nagar","city":"Jaipur","street":"Adarsh Nagar Path","district":"Jaipur","placeid":"356tsvcj-19095134953d446b974daa48f654da4c","name":"SRCM of Ind Ui of Orientology","state":"Rajasthan","category":"300-3100-0000"}
{"country":"IND","ROUTING":{"latitude":18.97867,"longitude":72.83397},"town":"Byculla","city":"Mumbai","street":"Dr Babasaheb Ambedkar Marg","PHONE":"+912223742162","district":"Mumbai","placeid":"356te7gc-4dada7f99e7d4cb29801f88701435c80","name":"Veermata Jijabai Bhosale Udyan","state":"Maharashtra","category":"300-3000-0023"}
{"country":"IND","ROUTING":{"latitude":31.60463,"longitude":74.57315},"city":"Amritsar Sub-District","street":"NH-1","district":"Amritsar","placeid":"356jx7ps-d8e8136586650d123e06e0ccd91a7314","name":"Amritsar Sub-District/NH-1/Pakistan","state":"Punjab","category":"800-8100-0172"}
{"country":"IND","ROUTING":{"latitude":22.53992,"longitude":88.33031},"town":"Alipore","city":"Kolkata","PHONE":"+913324791150","placeid":"356tunb4-717b92b0cb414c61977eb43fb5481f63","EMAIL":"director@kolkatazoo.in","OTHER":"http://www.facebook.com/138456062845697","DISPLAY":{"latitude":22.53992,"longitude":88.33028},"district":"Kolkata","name":"Zoological Garden, Alipore","WEBADDRESS":"http://www.kolkatazoo.in","state":"West Bengal","category":"300-3000-0023","FAX":"033 2479 1585"}
{"country":"IND","ROUTING":{"latitude":23.06068,"longitude":72.58024},"town":"Juna Vadaj","city":"Ahmedabad","street":"Ashram Road","district":"Ahmedabad","placeid":"356ts5e5-f7fdd52074e140ba8802d2ff91207202","name":"Gandhi Memorial Ashram","state":"Gujarat","category":"550-5510-0202"}
{"country":"IND","ROUTING":{"latitude":23.08136,"longitude":72.49757},"town":"Sola","city":"Ahmedabad","PHONE":"+917965220111","placeid":"356ts5e3-5bbe14d302004ad58455da591ec7c436","EMAIL":"mail@scity.org","OTHER":"http://www.facebook.com/129764033732019","street":"Science City Road","district":"Ahmedabad","name":"Gujarat Science City","WEBADDRESS":"www.scity.org","state":"Gujarat","category":"300-3000-0000","FAX":"098980 29617","MOBILE":"+917965220111"}
{"OTHER":"http://www.facebook.com/319977191371241","country":"IND","ROUTING":{"latitude":28.61603,"longitude":77.19614},"town":"Presidents Estate","city":"New Delhi","PHONE":"+919969039148","district":"New Delhi","placeid":"356ttnfu-99253a8ea5254815ba239d33897e3eab","name":"Mugal Gardan","WEBADDRESS":"http://presidentofindia.nic.in","state":"Delhi","category":"300-3000-0000"}
{"country":"IND","ROUTING":{"latitude":28.99451,"longitude":80.11717},"city":"Poornagiri","street":"AH2","district":"Champawat","placeid":"356jx7ps-e341785c68ea0e85a395f4dd997e2af1","name":"Banbasa/Nepal","state":"Uttarakhand","category":"800-8100-0172"}
{"country":"IND","DISPLAY":{"latitude":18.9800691,"longitude":72.8200534},"ROUTING":{"latitude":18.98002,"longitude":72.82006},"town":"Mahalakshmi","city":"Mumbai","PHONE":"+912223071401","district":"Mumbai","placeid":"356te7gc-7fcf55d758bd4794a227282bee57af43","name":"Mahalaxmi Race Course","WEBADDRESS":"http://www.rwitc.com","state":"Maharashtra","category":"300-3000-0000"}
{"country":"IND","ROUTING":{"latitude":28.61293,"longitude":77.22898},"town":"India Gate","city":"New Delhi","PHONE":"+911123365358","placeid":"356jx7ps-1f81a3e16923035fca6d3ba85024c275","OTHER":"http://www.facebook.com/417718528241756","DISPLAY":{"latitude":28.61295,"longitude":77.22898},"district":"New Delhi","name":"India Dvar","WEBADDRESS":"http://www.delhitourism.gov.in/delhitourism/tourist_place/india_gate.jsp","state":"Delhi","category":"300-3000-0000"}
{"country":"IND","DISPLAY":{"latitude":26.90009,"longitude":75.81673},"ROUTING":{"latitude":26.90009,"longitude":75.81671},"town":"Adarsh Nagar","city":"Jaipur","street":"Service Road","PHONE":"+911412619359","district":"Jaipur","placeid":"356tsvcj-0a59125352c04634ba45de987583244b","name":"Bhagwanibai Sekh Saria Doll Museum","state":"Rajasthan","category":"300-3100-0000"}
{"country":"IND","ROUTING":{"latitude":28.58555,"longitude":77.18101},"town":"Chanakya Puri","city":"New Delhi","PHONE":"+911126881826","district":"New Delhi","placeid":"356ttnfs-b27e56f1344c4212a482fc1441af2eba","name":"Rashtreey Rel Sangrihalay","WEBADDRESS":"http://www.nrm.indianrailways.gov.in","state":"Delhi","category":"300-3000-0000","EMAIL":"contactnrm@yahoo.co.in"}
{"country":"IND","DISPLAY":{"latitude":27.094090213,"longitude":77.662843257},"ROUTING":{"latitude":27.09378,"longitude":77.66252},"town":"Fatehpur Sikri","city":"Fatehpur Sikri","PHONE":"+917222015635","district":"Agra","placeid":"356tsz4p-5f316dd7267a4bd4b6be064ad2677dce","name":"Buland Darwaza","WEBADDRESS":"http://www.gautamandgautamgroup.org/","state":"Uttar Pradesh","category":"300-3000-0000"}
{"country":"IND","ROUTING":{"latitude":23.04164,"longitude":72.58903},"town":"Madhupura","city":"Ahmedabad","district":"Ahmedabad","placeid":"356ts5e5-a2c094e0de334b0597048587c959ca6c","name":"Hatheesing Jain Mandir","state":"Gujarat","category":"900-9300-0221"}
{"country":"IND","ROUTING":{"latitude":18.98221,"longitude":72.80876},"town":"Mahalakshmi","city":"Mumbai","district":"Mumbai","placeid":"356te7gb-a973c30aab0e4575b9f52cd25b0d81f9","name":"Peer Haji Ali Dargah","state":"Maharashtra","category":"300-3000-0023"}
{"country":"IND","DISPLAY":{"latitude":26.91751,"longitude":75.79649},"ROUTING":{"latitude":26.91754,"longitude":75.7965},"town":"C-Scheme","city":"Jaipur","district":"Jaipur","placeid":"356tsvch-c4bcd8285f174d50972bf3115d6f0c76","name":"Hathroi Fort","state":"Rajasthan","category":"300-3000-0025"}
{"country":"IND","ROUTING":{"latitude":19.08973,"longitude":72.82713},"town":"Juhu","city":"Mumbai","street":"Keshor Kumar Ganguli Marg","district":"Mumbai Suburban","placeid":"356jx7ps-9244b1eeea6e01607624137b5d265f69","name":"Juhu Beach-Alternative Gate","state":"Maharashtra","category":"300-3000-0023"}
{"country":"IND","ROUTING":{"latitude":18.4974,"longitude":73.8477},"town":"Parvati","city":"Pune","district":"Pune","placeid":"356jx7ps-b9e6efbcd95c04a1515531cfc7af2920","name":"Parvati Hill & Temple","WEBADDRESS":"http://www.parvatidarshan.in/html/about_parvati.html","state":"Maharashtra","category":"300-3000-0000"}
{"country":"IND","ROUTING":{"latitude":26.93897,"longitude":75.81669},"town":"Nahargarh Fort","city":"Jaipur","street":"Nahar Garh Road","district":"Jaipur","placeid":"356tsvcq-381aa4e2b1434b99b1866948efa31fe1","name":"Ghati Gate","state":"Rajasthan","category":"300-3000-0025"}
{"country":"IND","ROUTING":{"latitude":28.52553,"longitude":77.1873},"town":"Mehrauli","city":"New Delhi","PHONE":"+911124647005","district":"South","placeid":"356ttnfk-47638bc788be49b9b9a3df770f856ef9","name":"Qutub Minar","state":"Delhi","category":"300-3000-0025"}
{"country":"IND","ROUTING":{"latitude":17.38402,"longitude":78.40331},"town":"Golconda","city":"Hyderabad","street":"Seven Tombs Road","PHONE":"+914023512401","district":"Hyderabad","placeid":"356tepfb-4774349bfb554d78a58f1a09e2778926","name":"Golconda Fort","WEBADDRESS":"http://www.telanganatourism.gov.in/partials/destinations/heritage-spots/hyderabad/golconda-fort.html","state":"Telangana","category":"300-3000-0000"}
{"country":"IND","ROUTING":{"latitude":31.62121,"longitude":74.87762},"town":"Katra Ahluwalia","city":"Amritsar","placeid":"356ttt5z-62fd88c830b24e5eb08174f55109035d","TOLLFREE":"1832553951","DISPLAY":{"latitude":31.62119,"longitude":74.8776},"street":"Golden Temple Road","district":"Amritsar","name":"Golden Temple","WEBADDRESS":"http://sgpc.net","state":"Punjab","category":"700-7200-0269"}
{"country":"IND","ROUTING":{"latitude":18.94013,"longitude":72.83629},"town":"CST","city":"Mumbai","district":"Mumbai","placeid":"356jx7ps-19689d92b90601a25918ea457064507f","name":"Chhatrapati Shivaji Terminal","state":"Maharashtra","category":"900-9300-0221"}
{"country":"IND","ROUTING":{"latitude":18.98865,"longitude":72.81474},"town":"Worli","city":"Mumbai","district":"Mumbai","placeid":"356jx7ps-b1ab3383ef740a7c3e60019d9113ddca","name":"Nehru Centre Auditorium","state":"Maharashtra","category":"300-3000-0023"}
{"country":"IND","ROUTING":{"latitude":12.95365,"longitude":77.58528},"town":"Jayanagar","city":"Bengaluru","PHONE":"+919829880841","placeid":"356httek-366182ca88050e4782ee2f8d9d3cb6b2","OTHER":"http://www.facebook.com/181893068518511","DISPLAY":{"latitude":12.95366,"longitude":77.58526},"district":"Bengaluru","name":"Bengaluru Botanical Garden","WEBADDRESS":"http://www.horticulture.kar.nic.in/lalbagh.htm","state":"Karnataka","category":"300-3000-0000"}
{"country":"IND","ROUTING":{"latitude":19.1238,"longitude":72.89773},"town":"Powai","city":"Mumbai","street":"Adi Shankaracharya Marg","PHONE":"+912224143200","district":"Mumbai Suburban","placeid":"356te7uf-4dd857f34cad479d8cff0b211a697e11","name":"Powai Lake","state":"Maharashtra","category":"350-3500-0304"}
{"country":"IND","ROUTING":{"latitude":18.51063,"longitude":73.85447},"town":"Shukrawar Peth","city":"Pune","PHONE":"+912024482101","placeid":"356tek92-aa10a2ba710c41baa53a95bd3c510ed8","EMAIL":"member@rajakelkarmuseum.com","OTHER":"http://www.facebook.com/135520809815523","street":"Raja Dinkar Kelkar Road","district":"Pune","name":"Raja Dinkar Kelkar Museum","WEBADDRESS":"http://www.rajakelkarmuseum.com/index.asp","state":"Maharashtra","category":"300-3000-0000"}
{"country":"IND","ROUTING":{"latitude":22.54739,"longitude":88.34305},"town":"Maidan","city":"Kolkata","PHONE":"+913322231890","placeid":"356tunb6-09db2572b0b543bda8a597ace6b8b577","EMAIL":"victomem@cal2.vsnl.net.in","OTHER":"http://www.facebook.com/113100222172879","district":"Kolkata","name":"Victoria Memorial","WEBADDRESS":"http://www.victoriamemorial-cal.org/","state":"West Bengal","category":"300-3000-0000","MOBILE":"+919007317894"}
{"country":"IND","DISPLAY":{"latitude":28.0189476,"longitude":81.6004531},"ROUTING":{"latitude":28.01895,"longitude":81.60045},"city":"Nanpara","street":"NH-28C","district":"Bahraich","placeid":"356jx7ps-b82c00a0215d09b0520d2d263006bce1","name":"Nanpara/Rupaidiha/NH-28C/Nepal","state":"Uttar Pradesh","category":"800-8100-0172"}
{"country":"IND","DISPLAY":{"latitude":27.4983589,"longitude":82.7933499},"ROUTING":{"latitude":27.49836,"longitude":82.79334},"city":"Shohratgarh","street":"Sona Colony Road","district":"Siddharthnagar","placeid":"356jx7ps-2b359ba35b500615c56a4f8f2e3a63b7","name":"Shohratgarh/Barhani/Nepal","state":"Uttar Pradesh","category":"800-8100-0172"}
{"country":"IND","ROUTING":{"latitude":26.9883,"longitude":84.85527},"town":"Raxaul Bazar","city":"Raxaul","street":"NH-28A","district":"Purba Champaran","placeid":"356jx7ps-6951da2cd26a09949fa731f6643b927c","name":"Raxaul/NH-28A/Nepal","state":"Bihar","category":"800-8100-0172"}
{"country":"IND","ROUTING":{"latitude":28.65111,"longitude":77.23437},"town":"Jama Masjid","city":"New Delhi","PHONE":"+919811046736","placeid":"356ttnfv-10ba7e4b077e403c89d77c6eebe49b26","OTHER":"http://www.facebook.com/127333183976839","DISPLAY":{"latitude":28.65111,"longitude":77.23427},"district":"Central","name":"Ya Mai Jia Qing Zhen Si","WEBADDRESS":"http://www.culturalindia.net/monuments/jama-masjid.html;http://www.delhitourism.gov.in/delhitourism/tourist_place/jama_masjid.jsp","state":"Delhi","category":"300-3000-0000"}
{"country":"IND","DISPLAY":{"latitude":26.6487401,"longitude":88.4171951},"ROUTING":{"latitude":26.64874,"longitude":88.41719},"city":"Rajganj","street":"AH2","district":"Jalpaiguri","placeid":"356jx7ps-3323657f1b5b0707d9e8f57a3811fe21","name":"Rajganj/Phulbari/Bangladesh","state":"West Bengal","category":"800-8100-0172"}
{"country":"IND","ROUTING":{"latitude":26.92335,"longitude":75.82609},"town":"Pink City","city":"Jaipur","PHONE":"+911415108897","placeid":"356tsvcj-05095f1e8bd84c3a9e8e947dd24b892b","OTHER":"https://www.facebook.com/863572190427041","district":"Jaipur","name":"Hawa Mahal","WEBADDRESS":"http://www.rajasthantourism.gov.in/.../jaipur/.","state":"Rajasthan","category":"300-3000-0000","MOBILE":"+919680223637"}
{"OTHER":"https://www.twitter.com/vkasshu","country":"IND","ROUTING":{"latitude":17.40527,"longitude":78.46929},"town":"Saifabad","city":"Hyderabad","PHONE":"+914023233259","district":"Hyderabad","placeid":"356tepg1-2b0e7c26877c414596729afec3276c16","name":"Birla Mandir","WEBADDRESS":"http://www.telanganatourism.gov.in/partials/destinations/divine-destinations/hyderabad/birla-mandir.html#parentHorizontalTab1","state":"Telangana","category":"300-3000-0000"}
{"country":"IND","ROUTING":{"latitude":23.06033,"longitude":72.5801},"town":"Juna Vadaj","city":"Ahmedabad","PHONE":"+917927557277","placeid":"356ts5e5-5480739d37804f6cb75f3f376a6cb298","OTHER":"http://www.facebook.com/1481603752090706","street":"Ashram Road","district":"Ahmedabad","name":"Sabarmati Ashram Gandhi Memorial","WEBADDRESS":"http://gandhiashramsabarmati.org/en/","state":"Gujarat","category":"300-3000-0000"}
{"country":"IND","ROUTING":{"latitude":28.61586,"longitude":77.27846},"town":"Pandav Nagar","city":"New Delhi","street":"Swami Narayan Mandir Road","PHONE":"+919911788187","district":"East","placeid":"356ttnfy-45883a82f85b4a53a74425603f77432c","name":"Swaminarayan Akshardham","WEBADDRESS":"http://akshardham.com","state":"Delhi","category":"300-3000-0000"}
{"country":"IND","ROUTING":{"latitude":23.04049,"longitude":72.60574},"town":"Asarwa","city":"Ahmedabad","street":"Asarwa Mill Road","district":"Ahmedabad","placeid":"356ts5eh-c717222d1908416cacc77b7c98457ffc","name":"Dada Harir's Mosque & Tomb","state":"Gujarat","category":"300-3000-0023"}
{"country":"IND","DISPLAY":{"latitude":24.8720092,"longitude":92.2489201},"ROUTING":{"latitude":24.87201,"longitude":92.24892},"city":"Karimganj","street":"NH-151","district":"Karimganj","placeid":"356jx7ps-50892c258fad017676b5ffd468d8f151","name":"Karimganj/NAH-151/Bangladesh","state":"Assam","category":"800-8100-0172"}
{"country":"IND","ROUTING":{"latitude":22.4549,"longitude":88.30346},"town":"Joka","city":"Kolkata","street":"Diamond Harbour Road","PHONE":"+91332438390","district":"South Twenty Four Parganas","placeid":"356tgyz9-49d3b4e68dcd438dada2e68c951842f0","name":"Gurusaday Museum","WEBADDRESS":"http://www.gurusadaymuseum.org/","state":"West Bengal","category":"300-3000-0000"}
{"country":"IND","DISPLAY":{"latitude":27.4756139,"longitude":83.4697275},"ROUTING":{"latitude":27.47562,"longitude":83.4697},"city":"Nautanwa","street":"NH-29","district":"Mahrajganj","placeid":"356jx7ps-12765171c3f1050c728df22ba6c9b839","name":"Nautanwa/NH-29/Nepal","state":"Uttar Pradesh","category":"800-8100-0172"}
{"country":"IND","ROUTING":{"latitude":18.92217,"longitude":72.83377},"town":"Colaba","city":"Mumbai","PHONE":"+912222841877","placeid":"356te7g9-beae598315764ff0807d02dfbce44b5a","OTHER":"http://www.facebook.com/1888028644583029","street":"Prem Ramchandani Marg","district":"Mumbai","name":"Gateway of India","WEBADDRESS":"http://gateway-of-india-mumbai-in.placestars.com","state":"Maharashtra","category":"300-3000-0000"}
{"country":"IND","DISPLAY":{"latitude":23.0375616,"longitude":88.87643},"ROUTING":{"latitude":23.03756,"longitude":88.87643},"city":"Bongaon","street":"NH-35","district":"North Twenty Four Parganas","placeid":"356jx7ps-e5f8590bf1b80364bcb66957bef7e344","name":"Bongaon/Petrapole/NH-35/Bangladesh","state":"West Bengal","category":"800-8100-0172"}
{"country":"IND","DISPLAY":{"latitude":18.95443,"longitude":72.81467},"ROUTING":{"latitude":18.95445,"longitude":72.81469},"town":"Grant Road","city":"Mumbai","street":"Marine Drive Road","district":"Mumbai","placeid":"356te7gb-2b53583fb1484278a7faba3deda99dac","name":"Girgaon Chowpaty","state":"Maharashtra","category":"300-3000-0000"}
{"OTHER":"http://www.facebook.com/364195540795663","country":"IND","ROUTING":{"latitude":21.83858,"longitude":73.71926},"city":"Nandod","PHONE":"+917923252356","district":"Narmada","placeid":"356teukj-a0a7d41baf2748098d7bc8658882b2cb","name":"Staichyoo Of Yoonitee","WEBADDRESS":"http://www.soutickets.in","state":"Gujarat","category":"300-3000-0000"}
{"country":"IND","ROUTING":{"latitude":30.75546,"longitude":76.79535},"town":"Sector 10","city":"Chandigarh","district":"Chandigarh","placeid":"356ttqwg-8304e3b0d77d46d89c08424a5f59126c","name":"Chandigarh Tourism Leisure Valley","state":"Chandigarh","category":"550-5510-0204"}
{"country":"IND","ROUTING":{"latitude":26.98142,"longitude":75.84392},"town":"Amer","city":"Jaipur","PHONE":"+911415110595","district":"Jaipur","placeid":"356tsvcm-7ed93e8c03f54939b8f3ae0eee7a27bd","name":"Jaigarh Fort","WEBADDRESS":"http://gautamandgautamgroup.org","state":"Rajasthan","category":"300-3000-0000"}
{"country":"IND","ROUTING":{"latitude":19.01619,"longitude":72.83124},"town":"Dadar West","city":"Mumbai","PHONE":"+918983847070","placeid":"356jx7ps-8babdabb8d5b0f2ed23fba9350941ea0","OTHER":"http://www.facebook.com/141644973205914","DISPLAY":{"latitude":19.01622,"longitude":72.83126},"street":"Kakasaheb Gadgil Marg","district":"Mumbai","name":"Siddhivinayak","state":"Maharashtra","category":"300-3000-0023"}
{"country":"IND","DISPLAY":{"latitude":28.6911592,"longitude":80.5519537},"ROUTING":{"latitude":28.69116,"longitude":80.55195},"city":"Palia","street":"SH-90","district":"Lakhimpur Kheri","placeid":"356jx7ps-0c44550f9dce06672a8fab441d58a0e5","name":"Palia/Gauriphanta/SH-90/Nepal","state":"Uttar Pradesh","category":"800-8100-0172"}
{"country":"IND","DISPLAY":{"latitude":26.6295581,"longitude":85.770024},"ROUTING":{"latitude":26.62956,"longitude":85.77002},"town":"Sarkhandio Bitha","city":"Sursand","street":"Jaleshwar-Maliwara Road","district":"Sitamarhi","placeid":"356jx7ps-8f7cc0ce4ed40a668aa64bc6caf2d2c5","name":"Sursand/NH-104/Nepal","state":"Bihar","category":"800-8100-0172"}
{"country":"IND","ROUTING":{"latitude":17.23665,"longitude":78.42937},"town":"Shamshabad","city":"Hyderabad","street":"Airport Road","PHONE":"+914066764000","district":"Rangareddy","placeid":"356tepf0-9ebe65d3484d406bba4221cd990b2f20","name":"Rajiv Gandhi International Airport","state":"Telangana","category":"400-4000-4581"}
{"country":"IND","ROUTING":{"latitude":26.96659,"longitude":75.84839},"town":"Amer","city":"Jaipur","street":"Kanak Ghati Road","district":"Jaipur","placeid":"356tsvcm-c29601a345c3440a960c4f830eb0e6a4","name":"Kanak Vrindavan Ghati","state":"Rajasthan","category":"300-3000-0023"}
{"country":"IND","ROUTING":{"latitude":22.54564,"longitude":88.34683},"town":"Maidan","city":"Kolkata","PHONE":"+913322235353","district":"Kolkata","placeid":"356tunb6-05966d3d455241c6bade470bde7f6927","name":"M. P. Birla Planetarium","WEBADDRESS":"http://mpbirlaplanetarium.org","state":"West Bengal","category":"300-3000-0023","FAX":"033 2248 7688"}
{"country":"IND","ROUTING":{"latitude":19.09772,"longitude":72.82675},"town":"Juhu","city":"Mumbai","street":"Juhu Tara Road","district":"Mumbai Suburban","placeid":"356te7u9-3932cc3dd4cb41b3b66d2d267d30c2d2","name":"Juhu Chowpatty","state":"Maharashtra","category":"300-3000-0023"}
{"country":"IND","ROUTING":{"latitude":22.53398,"longitude":88.36441},"town":"Ballygunge","city":"Kolkata","PHONE":"+913322477241","placeid":"356tunb4-e7a5c93fdf26487992c949acd386c0c1","EMAIL":"bitm@cal2.vsnl.net.in","DISPLAY":{"latitude":22.53401,"longitude":88.36441},"street":"Gurusaday Road","district":"Kolkata","name":"Birla Industrial and Technological Museum","WEBADDRESS":"http://www.bitmcal.org","state":"West Bengal","category":"300-3000-0000"}
{"country":"IND","DISPLAY":{"latitude":24.84271,"longitude":88.14115},"ROUTING":{"latitude":24.84271,"longitude":88.14115},"city":"English Bazar","district":"Maldah","placeid":"356jx7ps-444e5ad7ca11036e7ac6b35f213ee328","name":"English Bazar/Bangladesh","state":"West Bengal","category":"800-8100-0172"}
{"country":"IND","DISPLAY":{"latitude":25.1845235,"longitude":92.0260659},"ROUTING":{"latitude":25.18452,"longitude":92.02606},"city":"Pynursla","street":"Dhaka-Sylhet Highway","district":"East Khasi Hills","placeid":"356jx7ps-aeafbf1655870be7c9fbc57b06b9f031","name":"Pynursla/Dawki/NH-40/Bangladesh","state":"Meghalaya","category":"800-8100-0172"}
{"country":"IND","DISPLAY":{"latitude":26.95396,"longitude":75.84327},"ROUTING":{"latitude":26.95398,"longitude":75.84242},"town":"Amer Road","city":"Jaipur","street":"Amer Road","PHONE":"+911412373520","district":"Jaipur","placeid":"356tsvcm-aa956edf00d74f78b4ff28b6881919df","name":"Jal Mahal","state":"Rajasthan","category":"300-3000-0023"}
{"country":"IND","ROUTING":{"latitude":27.17104,"longitude":78.04392},"town":"Forest Area","city":"Agra","PHONE":"+915622226431","placeid":"356tsz6x-155d89d9461447f39052ff673198b5a0","EMAIL":"agrauptourism@gmail.com","OTHER":"http://www.facebook.com/108571669173264","street":"Taj Mahal Road","district":"Agra","name":"Taj Mahal","WEBADDRESS":"http://www.tajmahal.gov.in/","state":"Uttar Pradesh","category":"300-3000-0000","FAX":"011 2371 0336","MOBILE":"+918685891889"}
{"country":"IND","ROUTING":{"latitude":12.95994,"longitude":77.5737},"town":"Chamarajapete","city":"Bengaluru","street":"1st Main Road","district":"Bengaluru","placeid":"356tdr1t-a226e1bd77f54fa1af189de600745e8e","name":"Tippu Sultan's Palace","state":"Karnataka","category":"300-3000-0025"}
