{"country":"ALB","ROUTING":{"latitude":40.71234,"longitude":19.93839},"town":"Berat","city":"Berat","PHONE":"+35532242090","placeid":"008jx7ps-19b781d90e730c40a3bd7e53281c7e0b","EMAIL":"autopartsberat@gmail.com","street":"Rruga Anti Patrea","district":"Berat","name":"Berat","WEBADDRESS":"http://autopartsberat.blogspot.com/","state":"Berat","category":"300-3000-0025","MOBILE":"+355694837377"}
{"country":"ALB","DISPLAY":{"latitude":41.0899207,"longitude":20.6076288},"ROUTING":{"latitude":41.08992,"longitude":20.60763},"city":"Udenisht","street":"SH3","district":"Pogradec","placeid":"008jx7ps-7abd7dd9f3d00fa9111a6740f9b4a74f","name":"Librazhd/SH3/Maqedonia e Veriut","state":"Korçë","category":"800-8100-0172"}
{"country":"ALB","DISPLAY":{"latitude":42.0173691,"longitude":19.3736904},"ROUTING":{"latitude":42.01737,"longitude":19.37369},"city":"Ana e Malit","street":"E851","district":"Shkodër","placeid":"008jx7ps-c272166e87c60d0c0b8d98e167e7acff","name":"Muriqan/E851/Mali I Zi","state":"Shkodër","category":"800-8100-0172"}
{"country":"ALB","ROUTING":{"latitude":41.32805,"longitude":19.81923},"town":"Njësia Bashkiake 2","city":"Tiranë","PHONE":"+3554223701","placeid":"008srq55-85a6075e0fd24c018a5f77929363f099","OTHER":"http://www.facebook.com/143057379044291","DISPLAY":{"latitude":41.32784,"longitude":19.81935},"district":"Tiranë","name":"Xhamia Etem Beut","WEBADDRESS":"http://www.visit-tirana.com/things-to-do/monuments-and-cultural-sites/19/et%E2%80%99hem-bey-mosque","state":"Tiranë","category":"300-3000-0000"}
{"country":"ALB","DISPLAY":{"latitude":39.91234,"longitude":20.3584},"ROUTING":{"latitude":39.91234,"longitude":20.3584},"city":"Dropull I Sipërm","street":"SH4","district":"Gjirokastër","placeid":"008jx7ps-70d9c3e6be9c0d9a2c74ae1956d8676f","name":"Gjirokastër/SH4/Greqia","state":"Gjirokastër","category":"800-8100-0172"}
{"country":"ALB","DISPLAY":{"latitude":39.744040959,"longitude":20.019254342},"ROUTING":{"latitude":39.74415,"longitude":20.01879},"city":"Xarrë","street":"SH81","PHONE":"+355692436689","district":"Sarandë","placeid":"008srn4p-459aec77b8fc4a2aade3f4d2076d3f2b","name":"Buthrotum","WEBADDRESS":"http://akzm.gov.al","state":"Vlorë","category":"300-3000-0000"}
{"country":"ALB","DISPLAY":{"latitude":42.3301638,"longitude":19.4200779},"ROUTING":{"latitude":42.33016,"longitude":19.42008},"city":"Kastrat","street":"SH1","district":"Malësi e Madhe","placeid":"008srtbc-9cfb9ae75a3b420abde67397b211b9fe","name":"Malesia e Madhe/E762/Mali I Zi","state":"Shkodër","category":"800-8100-0172"}
{"country":"ALB","ROUTING":{"latitude":40.62293,"longitude":21.05424},"city":"Bilisht Qendër","street":"E86","district":"Devoll","placeid":"008srnzp-780d73c5ae9e4d72aa8db07d87f7969c","name":"Devoll/E86/Greqia","state":"Korçë","category":"800-8100-0172"}
{"country":"ALB","ROUTING":{"latitude":41.33019,"longitude":19.81697},"town":"Njësia Bashkiake 9","city":"Tiranë","PHONE":"+3554228389","placeid":"008srq54-3ea32ab6860140a1990f6492b3a3387b","DISPLAY":{"latitude":41.32939,"longitude":19.81715},"street":"Rruga Ded Gjo Luli","district":"Tiranë","name":"Muzeu Historik Kombëtar","WEBADDRESS":"http://mhk.gov.al","state":"Tiranë","category":"300-3000-0000"}
{"country":"ALB","DISPLAY":{"latitude":41.41924,"longitude":19.71396},"ROUTING":{"latitude":41.42034,"longitude":19.71245},"city":"Nikël","PHONE":"+3554363369","district":"Krujë","placeid":"008srq58-3e2c6e3ee85d4199bb5c9fa570c95c0d","name":"Aeroporti Nënë Tereza","state":"Durrës","category":"400-4000-4581"}
{"country":"ALB","DISPLAY":{"latitude":42.1557535,"longitude":20.5473491},"ROUTING":{"latitude":42.15575,"longitude":20.54735},"city":"Tërthore","street":"SH5","district":"Kukës","placeid":"008jx7ps-ca2190250f9408cd57f9151f4dbb19ca","name":"Morine/SH5/Kosovë","state":"Kukës","category":"800-8100-0172"}
{"country":"AND","ROUTING":{"latitude":42.50404,"longitude":1.55171},"street":"Carretera de la Plana","PHONE":"+376890890","placeid":"020sp91g-19d4825b093841588642414408b5ed1f","name":"La Vallée du Madriu-Perafita-Claror","state":"Escaldes-Engordany","category":"300-3000-0023"}
{"country":"AND","DISPLAY":{"latitude":42.43571,"longitude":1.47317},"ROUTING":{"latitude":42.43571,"longitude":1.47317},"street":"CG1","placeid":"020sp913-79acfe3505f34bdc825656148f27b5a9","name":"Sant Julià de Lòria/CG1/Espanya","state":"Sant Julià de Lòria","category":"800-8100-0172"}
{"country":"AND","ROUTING":{"latitude":42.54782,"longitude":1.73446},"street":"Tunel d'Envalira","placeid":"020sp94p-79020c316ba9423082f5b78492a197b3","name":"Encamp/Tunel d'Envalira/França","state":"Encamp","category":"800-8100-0172"}
{"country":"ARE","ROUTING":{"latitude":24.90691,"longitude":55.81268},"city":"المدام","street":"إ44","district":"الشارقة","placeid":"784jx7ps-3314ffc517cb0964d1992b300e24d529","name":"Sharjah/E44/Oman","state":"الشارقة","category":"800-8100-0172"}
{"country":"ARE","DISPLAY":{"latitude":24.9784003,"longitude":56.3649312},"ROUTING":{"latitude":24.9784,"longitude":56.36493},"city":"كلباء","street":"شارع 108","district":"كلباء","placeid":"784tk2n4-d3878a595e0d4bd6ad571de2d5c52386","name":"Kalbaa/Khatemt Malaha/Oman","state":"الشارقة","category":"800-8100-0172"}
{"country":"ARE","ROUTING":{"latitude":24.44635,"longitude":54.56748},"city":"جزيرة السمالية","district":"أبوظبي","placeid":"784jx7ps-7397ca4916a800e3888a486b32d000c4","name":"Abu Dhabi/Dubai Ferry Terminal","state":"أبوظبي","category":"400-4100-0045"}
{"country":"ARE","ROUTING":{"latitude":24.4545,"longitude":54.31609},"city":"الرأس الأخضر","district":"أبوظبي","placeid":"784jx7ps-b7244e58ce5402f46c43b1fcb8ba0fb5","name":"Abu Dhabi/Al Maya Island Ferry Terminal","state":"أبوظبي","category":"400-4100-0045"}
{"country":"ARE","DISPLAY":{"latitude":24.1200781,"longitude":51.5971368},"ROUTING":{"latitude":24.12007,"longitude":51.59714},"city":"الغويفات","street":"إ11","district":"الظفرة","placeid":"784thk9j-2f06839482a0456f9508e1c2a8e5686f","name":"Al Ghowaifat/E11/Saudi Arabia","state":"أبوظبي","category":"800-8100-0172"}
{"country":"ARE","DISPLAY":{"latitude":24.48271,"longitude":54.35437},"ROUTING":{"latitude":24.48151,"longitude":54.35459},"city":"الحصن","street":"شارع خالد بن الوليد","district":"أبوظبي","placeid":"784thqek-a1eb9d6fb6014e3ea52c52fdde0da99d","name":"Al Hosn Palace","state":"أبوظبي","category":"800-8600-0197"}
{"country":"ARE","DISPLAY":{"latitude":24.2163136,"longitude":55.7745221},"ROUTING":{"latitude":24.2163103,"longitude":55.77467},"city":"منطقة وسط المدينة-حي السوق","street":"شارع 1","PHONE":"+97137641595","district":"العين","placeid":"784thr9v-75e925b48dfb49c88d7cf56fdd194c86","name":"Al Ain National Museum","WEBADDRESS":"http://www.visitabudhabi.com","state":"أبوظبي","category":"300-3000-0000"}
{"country":"ARE","DISPLAY":{"latitude":25.41378,"longitude":55.44552},"ROUTING":{"latitude":25.41416,"longitude":55.44444},"city":"ليوارا 1","street":"شارع الشيخ راشد بن حميد النعيمي","PHONE":"+97167423824","district":"عجمان","placeid":"784thx2t-b707b732ae4c43a1b22fc4eead49c5f3","name":"Ajman Museum","WEBADDRESS":"http://Www.ajman.travel","state":"عجمان","category":"300-3000-0000"}
{"country":"ARE","ROUTING":{"latitude":24.47223,"longitude":52.32195},"city":"دلما","district":"الظفرة","placeid":"784jx7ps-c48dcfcdbd1f075310b94edd8675933e","name":"Abu Dhabi/Delma Island Ferry Terminal","state":"أبوظبي","category":"400-4100-0045"}
{"country":"ARE","DISPLAY":{"latitude":24.47753,"longitude":54.35686},"ROUTING":{"latitude":24.47744,"longitude":54.35694},"city":"المنهل","street":"شارع المتيقنين","PHONE":"+97126346344","district":"أبوظبي","placeid":"784thqem-526e8b0844064cd0a07f80d72dd0885e","name":"Palace Of Sultan Gents Salon","state":"أبوظبي","category":"300-3000-0023"}
{"country":"ARE","ROUTING":{"latitude":24.16197,"longitude":55.10226},"city":"الخزنة جنوب","district":"العين","placeid":"784thr1m-a799d06468054723bc01cdab95ecb765","name":"Al Khazna Palace","state":"أبوظبي","category":"300-3000-0023"}
{"country":"ARE","ROUTING":{"latitude":25.28294,"longitude":56.34682},"city":"قدفع","district":"الفجيرة","placeid":"784jx7ps-33a6d509255a0f870f4f2e70c8c0d63f","name":"Fujairah/Oman","state":"الفجيرة","category":"800-8100-0172"}
{"country":"ARE","DISPLAY":{"latitude":24.42124,"longitude":54.48548},"ROUTING":{"latitude":24.42102,"longitude":54.48841},"city":"ساس النخل","district":"أبوظبي","placeid":"784thqdz-d4109165cc2341609241038d33aee80d","name":"Al Maqta Fort","state":"أبوظبي","category":"300-3000-0000"}
{"country":"ARE","ROUTING":{"latitude":24.47387,"longitude":54.32468},"city":"الرأس الأخضر","district":"أبوظبي","placeid":"784thqeh-838f539005ae45c8983553c215d39492","name":"Abu Dhabi/Lulu Island Ferry Terminal","state":"أبوظبي","category":"400-4100-0045"}
{"country":"ARE","ROUTING":{"latitude":24.11659,"longitude":53.91022},"city":"جريوه","district":"أبوظبي","placeid":"784jx7ps-ab7753c3e42103da99e0ba979cab3c1c","name":"Abu Dhabi/Abu Al Abyad Island Ferry Terminal","state":"أبوظبي","category":"400-4100-0045"}
{"country":"ARE","ROUTING":{"latitude":25.22536,"longitude":55.16926},"city":"جزر العالم","street":"معدية ذا رويال ايلاند بيتش كلوب","district":"دبي","placeid":"784jx7ps-fa0e961a87c900463dac987555a83b95","name":"Dubai/the Royal Island Beach Club Ferry Terminal","state":"دبي","category":"400-4100-0045"}
{"country":"ARE","DISPLAY":{"latitude":24.42722,"longitude":54.64619},"ROUTING":{"latitude":24.42379,"longitude":54.64071},"city":"مطار أبوظبي الدولي","street":"شارع الخليج العربي","PHONE":"+97125757500","district":"أبوظبي","placeid":"784thqfg-92f4b66bbb2a40d494d53c7710d93844","name":"Abu Dhabi International Airport","state":"أبوظبي","category":"400-4000-4581"}
{"country":"ARE","DISPLAY":{"latitude":25.13867,"longitude":56.33711},"ROUTING":{"latitude":25.13763,"longitude":56.33727},"city":"الفصيل","PHONE":"+97192229201","district":"الفجيرة","placeid":"784tk2p1-6ead25a8fdce4832963af804273059ba","name":"Fujairah Fort","WEBADDRESS":"http://www.fujairahtourism.ae","state":"الفجيرة","category":"300-3000-0000"}
{"country":"ARE","DISPLAY":{"latitude":24.53371,"longitude":54.39884},"ROUTING":{"latitude":24.53398,"longitude":54.40165},"city":"السعديات","district":"أبوظبي","placeid":"784thqet-95cfd2de6ece46048cf8ca43db63e8ab","name":"Louvre Abu Dhabi","state":"أبوظبي","category":"300-3100-0000"}
{"country":"ARE","DISPLAY":{"latitude":24.0220601,"longitude":55.8472607},"ROUTING":{"latitude":24.02206,"longitude":55.84726},"city":"مزيد","street":"شارع سلطان بن زايد","district":"العين","placeid":"784thr8w-22232fe884f049b5b4fd7e0b3b3a81e6","name":"Al Ain/Mzyad Check Piont/Oman","state":"أبوظبي","category":"800-8100-0172"}
{"country":"ARE","ROUTING":{"latitude":24.21397,"longitude":52.58997},"city":"جبل الظنة","district":"الظفرة","placeid":"784jx7ps-446b85e8a258089b2d77a12fb593dab3","name":"Abu Dhabi/Sir Bani Yas Island Ferry Terminal","state":"أبوظبي","category":"400-4100-0045"}
{"country":"ARE","ROUTING":{"latitude":24.48039,"longitude":54.60895},"city":"جزيرة ياس","PHONE":"1-600511115","placeid":"784thqg6-b9399f1a795c4a5a96210d29e9c07f86","EMAIL":"info@ferrariworldabudhabi.com","OTHER":"http://www.facebook.com/303561212087","DISPLAY":{"latitude":24.48039,"longitude":54.60893},"district":"أبوظبي","name":"Abu Dhabi Ferrari World","WEBADDRESS":"http://www.ferrariworldabudhabi.com","state":"أبوظبي","category":"300-3000-0000"}
{"country":"ARE","DISPLAY":{"latitude":25.15635,"longitude":55.3033},"ROUTING":{"latitude":25.15953,"longitude":55.30213},"city":"ند الشبا 1","district":"دبي","placeid":"784thrr4-61add15383e645c9a39904844a1270e4","name":"Nad Al Sheba Racecourse","state":"دبي","category":"800-8600-0180"}
{"country":"ARE","ROUTING":{"latitude":24.22038,"longitude":54.68926},"city":"قصر الوثبة","district":"أبوظبي","placeid":"784thqcu-6d7fc7a04c1248c99e261c051096d74c","name":"Al Wathba Palace","state":"أبوظبي","category":"300-3000-0023"}
{"country":"ARE","ROUTING":{"latitude":24.2762,"longitude":52.62134},"city":"صير بني ياس","district":"الظفرة","placeid":"784jx7ps-1c43809ac9670d1ba27037b3aa9d2e71","name":"Abu Dhabi/Sir Bani Yas Island Ferry Terminal","state":"أبوظبي","category":"400-4100-0045"}
{"country":"ARE","ROUTING":{"latitude":25.19761,"longitude":55.2405},"city":"جميرا 2","street":"شارع 1ب","district":"دبي","placeid":"784thrr3-5b9022fbb9964c32b9109bf272f33330","name":"Jumeira Archaeological Site","state":"دبي","category":"300-3000-0025"}
{"country":"ARE","ROUTING":{"latitude":24.85577,"longitude":56.00024},"street":"إ44","district":"مصفوت","placeid":"784jx7ps-abb9d9816416086f73eddd56e954354e","name":"Masfut/E44/Oman","state":"عجمان","category":"800-8100-0172"}
{"country":"ARE","ROUTING":{"latitude":24.48645,"longitude":54.33977},"city":"جزيرة اللولو","district":"أبوظبي","placeid":"784jx7ps-24005f9b463303e824890a1d5a4a4743","name":"Abu Dhabi/Lulu Island Ferry Terminal","state":"أبوظبي","category":"400-4100-0045"}
{"country":"ARE","ROUTING":{"latitude":24.80616,"longitude":56.20235},"city":"حتا","street":"إ44","district":"حتا","placeid":"784thrvn-307f0cc8994642159dfb6c6cb9f00c36","name":"Hatta/Hatta Check Point/E44/Oman","state":"دبي","category":"800-8100-0172"}
{"country":"ARE","ROUTING":{"latitude":25.35851,"longitude":55.38301},"city":"الشيوخ","street":"طريق البرج","PHONE":"+97165655455","district":"الشارقة","placeid":"784thx2h-2674be02bfa14e858d1c4954018f5d84","name":"Sharjah Islamic Museum","state":"الشارقة","category":"300-3100-0029"}
{"country":"ARE","ROUTING":{"latitude":25.58855,"longitude":55.58679},"city":"السينية","street":"معدية جزيرة السينية","district":"السينية","placeid":"784jx7ps-d01a8c40d7ab0f977fac3049123d1a76","name":"Umm Al Quwain/Al Sinniyah Island Ferry Terminal","state":"أم القيوين","category":"400-4100-0045"}
{"country":"ARE","DISPLAY":{"latitude":25.24874,"longitude":55.35484},"ROUTING":{"latitude":25.24802,"longitude":55.3537},"city":"مطار دبي الدولي","PHONE":"+97142245555","district":"دبي","placeid":"784thrre-0bcf4df2e250411abfb124951a02dd23","name":"Dubai International Airport","WEBADDRESS":"https://www.dubaiairports.ae/","state":"دبي","category":"400-4000-4581"}
{"country":"ARE","ROUTING":{"latitude":24.18058,"longitude":52.56998},"city":"جبل الظنة","district":"الظفرة","placeid":"784jx7ps-e6a052a4d3d00373a0490475771c5e26","name":"Abu Dhabi/Jebel Al Dhanna Ferry Terminal","state":"أبوظبي","category":"400-4100-0045"}
{"country":"ARE","DISPLAY":{"latitude":24.4443556,"longitude":54.3822211},"ROUTING":{"latitude":24.4443556,"longitude":54.3822211},"city":"المشرف","PHONE":"+97124455500","district":"أبوظبي","placeid":"784thqej-42aaee5dba2a4e3ca72a3ec961351393","name":"Abu Dhabi equestrian club","state":"أبوظبي","category":"300-3000-0023"}
{"country":"ARE","ROUTING":{"latitude":24.4047,"longitude":54.25458},"city":"جزيرة المايا","district":"أبوظبي","placeid":"784jx7ps-8650954977c905fc28d62a4e072282c7","name":"Abu Dhabi/Al Maya Island Ferry Terminal","state":"أبوظبي","category":"400-4100-0045"}
{"country":"ARE","DISPLAY":{"latitude":24.26043,"longitude":55.61642},"ROUTING":{"latitude":24.26081,"longitude":55.61687},"city":"مطار العين الدولي","PHONE":"+97137855555","district":"العين","placeid":"784thrd1-b3c9b46322224fc3bfac7ff5830d101e","name":"Al Ain International Airport","state":"أبوظبي","category":"400-4000-4581"}
{"country":"ARE","ROUTING":{"latitude":24.45828,"longitude":54.59275},"city":"جزيرة ياس","district":"أبوظبي","placeid":"784jx7ps-af8e9a2418bf0e02129adba86f981df3","name":"Abu Dhabi/Yas Island Ferry Terminal","state":"أبوظبي","category":"400-4100-0045"}
{"country":"ARE","DISPLAY":{"latitude":24.262125,"longitude":55.766975},"ROUTING":{"latitude":24.26212,"longitude":55.76697},"city":"الند","district":"العين","placeid":"784thrdj-8e0cf08aa8a146ccb39c185052477c27","name":"Al Ain/Hili Check Point/Oman","state":"أبوظبي","category":"800-8100-0172"}
{"country":"ARE","DISPLAY":{"latitude":24.41243,"longitude":54.47499},"ROUTING":{"latitude":24.41058,"longitude":54.4755},"city":"المدينة الرياضية","street":"شارع 5","PHONE":"2-4191919","district":"أبوظبي","placeid":"784thqdz-367f0f08f52f4e9c92ff99fe42438c97","name":"Sheikh Zayed Grand Mosque","WEBADDRESS":"https://www.szgmc.ae/","state":"أبوظبي","category":"300-3000-0000"}
{"country":"ARE","DISPLAY":{"latitude":25.32177,"longitude":55.52083},"ROUTING":{"latitude":25.31941,"longitude":55.51957},"city":"مطار الشارقة الدولي","PHONE":"+97165581111","district":"الشارقة","placeid":"784thx2p-f8c325cfd791425a9d41f89f05a5b1b1","name":"Sharjah International Airport","state":"الشارقة","category":"400-4000-4581"}
{"country":"ARE","ROUTING":{"latitude":25.30467,"longitude":56.35046},"district":"مدينة خور فكان","placeid":"784jx7ps-98aba5157b2105f625704ee0a9a91216","name":"Khor Fakkan Town/Oman","state":"الشارقة","category":"800-8100-0172"}
{"country":"ARE","ROUTING":{"latitude":24.44976,"longitude":54.56733},"city":"جزيرة السمالية","district":"أبوظبي","placeid":"784jx7ps-6531f837dbb40ebf2820e6deb80b78af","name":"Abu Shabi/Smaliyah Island Ferry Terminal","state":"أبوظبي","category":"400-4100-0045"}
{"country":"ARG","ROUTING":{"latitude":-31.31583,"longitude":-64.21548},"PHONE":"+543514750874","district":"Córdoba","placeid":"0326d6mf-b2b467d1d8c949b580782ef53ff8488c","name":"Aeropuerto Int. Pajas Blancas","state":"Córdoba","category":"400-4000-4581"}
{"country":"ARG","DISPLAY":{"latitude":-26.83569,"longitude":-65.10833},"ROUTING":{"latitude":-26.83222,"longitude":-65.10924},"PHONE":"+543814265072","district":"Cruz Alta","placeid":"0326e1xq-9218eb04f4ac4b369bcca7b061cb546e","name":"Aerop. de Tucumán Tte. Benjamin Matienzo","WEBADDRESS":"HTTP://WWW.AA2000.COM.AR/AEROPUERTOS.ASPX","state":"Tucumán","category":"900-9300-0221"}
{"country":"ARG","DISPLAY":{"latitude":-52.1417594,"longitude":-69.5198053},"ROUTING":{"latitude":-52.14176,"longitude":-69.5198},"street":"3","district":"Güer Aike","placeid":"032jx7ps-8e5a4cebb39e0ac724e555034d7183d1","name":"Río Gallegos/3/Chile","state":"Santa Cruz","category":"800-8100-0172"}
{"country":"ARG","DISPLAY":{"latitude":-50.28412,"longitude":-72.05373},"ROUTING":{"latitude":-50.28423,"longitude":-72.05362},"PHONE":"+542902491220","district":"Lago Argentino","placeid":"032jx7ps-ecb29501af100bb666bf09ecd64348ec","name":"Aeropuerto Internacional Comandante Armando Tola","state":"Santa Cruz","category":"300-3000-0023"}
{"country":"ARG","DISPLAY":{"latitude":-23.8447184,"longitude":-67.260423},"ROUTING":{"latitude":-23.84471,"longitude":-67.26042},"street":"51","district":"Los Andes","placeid":"032jx7ps-de17f24e7529053f763bf96575d93d2a","name":"Los Andes/51/Chile","state":"Salta","category":"800-8100-0172"}
{"country":"ARG","ROUTING":{"latitude":-34.60426,"longitude":-58.36939},"city":"San Nicolás","PHONE":"+54541143495000","placeid":"03269y7p-5e4e64f965504947a65ce85df71e218f","OTHER":"http://www.facebook.com/1457925701110625","DISPLAY":{"latitude":-34.60363,"longitude":-58.3694},"street":"Sarmiento","district":"Ciudad de Buenos Aires","name":"Centro Cultural Kirchner","WEBADDRESS":"http://www.cck.gob.ar","state":"Ciudad Autónoma de Buenos Aires","category":"300-3000-0000"}
{"country":"ARG","DISPLAY":{"latitude":-34.603638,"longitude":-58.3817001},"ROUTING":{"latitude":-34.603638,"longitude":-58.3817001},"city":"San Nicolás","street":"Avenida Corrientes","PHONE":"+541143825050","district":"Ciudad de Buenos Aires","placeid":"03269y7p-69ed23a2a62c4c128e0fd1198b53e495","name":"Obelisco","WEBADDRESS":"http://www.turismo.buenosaires.gob.ar/es/atractivo/obelisco","state":"Ciudad Autónoma de Buenos Aires","category":"300-3000-0000"}
{"country":"ARG","ROUTING":{"latitude":-34.5695,"longitude":-58.42647},"city":"Palermo","PHONE":"+541147782800","placeid":"03269y7q-bed0980e05ad4be4b594cd98acc68ac6","OTHER":"http://www.facebook.com/195502990484563","DISPLAY":{"latitude":-34.56881,"longitude":-58.42599},"street":"Avenida del Libertador","district":"Ciudad de Buenos Aires","name":"Hipódromo de Palermo","WEBADDRESS":"http://www.palermo.com.ar/","state":"Ciudad Autónoma de Buenos Aires","category":"300-3000-0000","FAX":"011 4778-2837"}
{"country":"ARG","DISPLAY":{"latitude":-41.14584,"longitude":-71.16189},"ROUTING":{"latitude":-41.14467,"longitude":-71.16782},"PHONE":"+542944405016","district":"Bariloche","placeid":"03262tmu-58ea41e2dae64f47a6dd4d23e95b6afa","name":"Aeropuerto Internacional San Carlos de Bariloche","WEBADDRESS":"http://www.aeropuertobariloche.com","state":"Río Negro","category":"900-9300-0221"}
{"country":"ARG","DISPLAY":{"latitude":-28.6074839,"longitude":-56.0174342},"ROUTING":{"latitude":-28.60748,"longitude":-56.01743},"street":"121","district":"Santo Tomé","placeid":"032jx7ps-2a20c80b16a90336caf3cb3e40c3de65","name":"Santo Tomé/121/Brasil","state":"Corrientes","category":"800-8100-0172"}
{"country":"ARG","DISPLAY":{"latitude":-32.2647501,"longitude":-58.0997837},"ROUTING":{"latitude":-32.26476,"longitude":-58.09978},"street":"135","district":"Colón","placeid":"032jx7ps-3c71df0052890fc8a456e43a75d93e52","name":"Colón/135/Uruguay","state":"Entre Ríos","category":"800-8100-0172"}
{"country":"ARG","DISPLAY":{"latitude":-35.9812726,"longitude":-70.3939484},"ROUTING":{"latitude":-35.98127,"longitude":-70.39395},"street":"145","district":"Malargüe","placeid":"032jx7ps-3a2e896d34110cd15488f5161bbb8807","name":"Malargüe/145/Chile","state":"Mendoza","category":"800-8100-0172"}
{"country":"ARG","ROUTING":{"latitude":-34.58759,"longitude":-58.39206},"city":"Recoleta","PHONE":"+541148031594","placeid":"03269y7p-da0efbfc0c294c20a95681a29a8a2fb4","EMAIL":"susytour@conozcabuenosaires.com.ar","OTHER":"http://www.facebook.com/380798521961114","DISPLAY":{"latitude":-34.58764,"longitude":-58.39221},"street":"Junín","district":"Ciudad de Buenos Aires","name":"Cementerio de la Recoleta","WEBADDRESS":"http://www.cementeriorecoleta.com.ar/","state":"Ciudad Autónoma de Buenos Aires","category":"300-3000-0000"}
{"country":"ARG","DISPLAY":{"latitude":-29.74247,"longitude":-57.09373},"ROUTING":{"latitude":-29.74247,"longitude":-57.09373},"street":"Puente Intl. Agustín P. Justo","district":"Paso de los Libres","placeid":"0326dxqu-f12ed75b735e469e8f43fcec8391b29d","name":"Paso de los Libres/117/Brasil","state":"Corrientes","category":"800-8100-0172"}
{"country":"ARG","ROUTING":{"latitude":-42.08712,"longitude":-71.61536},"street":"Lago Puelo","PHONE":"+54542944499232","district":"Cushamen","placeid":"032jx7ps-511c30d859250d7480411861243179aa","name":"Parque Nacional Lago Puelo","WEBADDRESS":"http://www.parquesnacionales.gob.ar/areas-protegidas/region-patagonia/pn-lago-puelo/","state":"Chubut","category":"300-3000-0000"}
{"country":"ARG","DISPLAY":{"latitude":-34.55676,"longitude":-58.41357},"ROUTING":{"latitude":-34.55542,"longitude":-58.41574},"city":"Palermo","PHONE":"+541154806111","district":"Ciudad de Buenos Aires","placeid":"03269y7q-51869c27e6084ae2a9597b1d85fcde7c","name":"Aeroparque Jorge Newbery","state":"Ciudad Autónoma de Buenos Aires","category":"900-9300-0221"}
{"country":"ARG","ROUTING":{"latitude":-34.60849,"longitude":-58.37344},"city":"Montserrat","street":"Bolívar","district":"Ciudad de Buenos Aires","placeid":"032jx7ps-8ad0a380306f0a18af25f3fd821a7561","name":"Ciudad de Buenos Aires","state":"Ciudad Autónoma de Buenos Aires","category":"900-9100-0215"}
{"country":"ARG","DISPLAY":{"latitude":-32.82783,"longitude":-68.79852},"ROUTING":{"latitude":-32.82805,"longitude":-68.79891},"city":"El Algarrobal","PHONE":"+542615206000","district":"Las Heras","placeid":"03266pj4-e9c145310eee45aba34cfb5d3104bfed","name":"Aeropuerto Internacional de Mendoza El Plumerillo","state":"Mendoza","category":"900-9300-0221"}
{"country":"ARG","DISPLAY":{"latitude":-26.21404,"longitude":-58.23059},"ROUTING":{"latitude":-26.21409,"longitude":-58.23077},"PHONE":"+543717450521","district":"Formosa","placeid":"0326eqdf-dc2081a1ba714bb19ef023687d0be40b","name":"Aeropuerto Internacional de Formosa","state":"Formosa","category":"900-9300-0221"}
{"country":"ARG","DISPLAY":{"latitude":-46.5842681,"longitude":-71.6610712},"ROUTING":{"latitude":-46.58427,"longitude":-71.66107},"street":"43","district":"Lago Buenos Aires","placeid":"032jx7ps-69b6e43a4f9f0daa0b6affe857899cc8","name":"Lago Buenos Aires/43/Chile","state":"Santa Cruz","category":"800-8100-0172"}
{"country":"ARG","ROUTING":{"latitude":-34.57758,"longitude":-58.40352},"city":"Palermo","PHONE":"+541148086500","placeid":"03269y7q-698cc1976c4c4482af6aaecd82103bb8","EMAIL":"informes@malba.org.ar","OTHER":"http://www.facebook.com/35416449206","DISPLAY":{"latitude":-34.57698,"longitude":-58.40344},"street":"Avenida Presidente Figueroa Alcorta","district":"Ciudad de Buenos Aires","name":"Malba","WEBADDRESS":"http://www.malba.org.ar","state":"Ciudad Autónoma de Buenos Aires","category":"300-3000-0000"}
{"country":"ARG","DISPLAY":{"latitude":-27.44486,"longitude":-59.04874},"ROUTING":{"latitude":-27.44355,"longitude":-59.04329},"PHONE":"+543722446009","district":"San Fernando","placeid":"0326en5b-f9cf911c02ad41858bf7d6b24d28d2d6","name":"Aerop. Inter. de Resistencia José de San Martín","state":"Chaco","category":"900-9300-0221"}
{"country":"ARG","DISPLAY":{"latitude":-31.41667,"longitude":-64.18481},"ROUTING":{"latitude":-31.41684,"longitude":-64.1844},"city":"Córdoba","street":"Independencia","PHONE":"+54543514223446","district":"Córdoba","placeid":"0326d6m7-dd661764c76c437596958ff87809a67e","name":"Catedral de Córdoba","WEBADDRESS":"http://www.cba.gov.ar","state":"Córdoba","category":"300-3000-0000"}
{"country":"ARG","DISPLAY":{"latitude":-34.5977,"longitude":-58.36718},"ROUTING":{"latitude":-34.5982,"longitude":-58.36724},"city":"Retiro","PHONE":"+541143166500","district":"Ciudad de Buenos Aires","placeid":"03269y7p-9fdf1d1730cd4a059c49b255f7351a37","name":"Terminal Fluvial de Buenos Aires","WEBADDRESS":"http://www.buquebus.com","state":"Ciudad Autónoma de Buenos Aires","category":"900-9300-0221","FAX":"011 4316-6485"}
{"country":"ARG","ROUTING":{"latitude":-34.57102,"longitude":-58.41143},"city":"Palermo","PHONE":"+54541147716629","placeid":"03269y7q-c1a206929b9e4d1891cbe9379e0f64c0","OTHER":"http://www.facebook.com/145290868847073","DISPLAY":{"latitude":-34.56966,"longitude":-58.41168},"street":"Avenida Sarmiento","district":"Ciudad de Buenos Aires","name":"Planetario de la Ciudad","WEBADDRESS":"http://www.planetario.gob.ar/","state":"Ciudad Autónoma de Buenos Aires","category":"300-3000-0000"}
{"country":"ARG","ROUTING":{"latitude":-34.62667,"longitude":-58.37096},"city":"San Telmo","PHONE":"+541143071182","placeid":"03269y7p-e68f8aa22a1f414c8eba7a7209df9810","OTHER":"http://www.facebook.com/178736078858","DISPLAY":{"latitude":-34.62699,"longitude":-58.37058},"street":"Defensa","district":"Ciudad de Buenos Aires","name":"Museo Histórico Nacional","WEBADDRESS":"http://museohistoriconacional.cultura.gob.ar/","state":"Ciudad Autónoma de Buenos Aires","category":"300-3000-0000"}
{"country":"ARG","DISPLAY":{"latitude":-38.664479,"longitude":-70.8953561},"ROUTING":{"latitude":-38.66447,"longitude":-70.89535},"street":"242","district":"Picunches","placeid":"032jx7ps-593d3d86a5bd088d8153c7764c8922f6","name":"Picunches/242/Chile","state":"Neuquén","category":"800-8100-0172"}
{"country":"ARG","ROUTING":{"latitude":-34.60908,"longitude":-58.37384},"city":"Montserrat","PHONE":"+541143426729","placeid":"03269y7p-55d9847feb2c4bbb807666ae5ede42dc","EMAIL":"consultas@cabildonacional.gob.ar","OTHER":"http://www.facebook.com/152734628728889","DISPLAY":{"latitude":-34.6089551,"longitude":-58.3737321},"street":"Hipólito Yrigoyen","district":"Ciudad de Buenos Aires","name":"Museo Nacional del Cabildo de Buenos Aires y de la Revolución de Mayo","WEBADDRESS":"HTTPS://CABILDONACIONAL.CULTURA.GOB.AR/","state":"Ciudad Autónoma de Buenos Aires","category":"404-000"}
{"country":"ARG","ROUTING":{"latitude":-22.09682,"longitude":-65.59616},"street":"9","district":"Yaví","placeid":"0326s167-fcb8744573494b5883261b63559ea034","name":"La Quiaca/9/Bolivia","state":"Jujuy","category":"800-8100-0172"}
{"country":"ARG","ROUTING":{"latitude":-26.61325,"longitude":-53.7345},"street":"22","district":"San Pedro","placeid":"032jx7ps-23a974bc52710a5c87c13b80e75c2869","name":"San Pedro/22/Brasil","state":"Misiones","category":"800-8100-0172"}
{"country":"ARG","ROUTING":{"latitude":-34.54657,"longitude":-58.45003},"city":"Belgrano","PHONE":"+541147891200","placeid":"03269y7m-11442adfa3344df5b8ae39530a588bd5","OTHER":"http://www.facebook.com/204173709773325","DISPLAY":{"latitude":-34.54536,"longitude":-58.44966},"street":"Avenida Presidente Figueroa Alcorta","district":"Ciudad de Buenos Aires","name":"Estadio Monumental","WEBADDRESS":"http://www.cariverplate.com.ar/subcomision-del-hincha","state":"Ciudad Autónoma de Buenos Aires","category":"300-3000-0000"}
{"country":"ARG","DISPLAY":{"latitude":-32.81504,"longitude":-70.08288},"ROUTING":{"latitude":-32.81504,"longitude":-70.08288},"street":"7","district":"Las Heras","placeid":"032jx7ps-16e08fbe821f0bd80018aad052b4fd3d","name":"Las Cuevas/7/Chile","state":"Mendoza","category":"800-8100-0172"}
{"country":"ARG","DISPLAY":{"latitude":-23.22481,"longitude":-67.05376},"ROUTING":{"latitude":-23.22481,"longitude":-67.05376},"street":"52","district":"Susques","placeid":"032jx7ps-990b6919c5a702fbd7e91305998c90d5","name":"Susques/52/Chile","state":"Jujuy","category":"800-8100-0172"}
{"country":"ARG","ROUTING":{"latitude":-38.83361,"longitude":-71.26769},"street":"13","district":"Aluminé","placeid":"032jx7ps-d5e98a6dd049043c4c0ceb1f4bf26a40","name":"Aluminé/13/Chile","state":"Neuquén","category":"800-8100-0172"}
{"country":"ARG","DISPLAY":{"latitude":-24.84438,"longitude":-65.47867},"ROUTING":{"latitude":-24.84394,"longitude":-65.4791},"street":"Acceso al Aeropuerto","PHONE":"+543874243115","district":"Salta","placeid":"0326e96t-14b696075f6f4c6491d95092801d09d5","name":"Aeropuerto Inter. de Salta","state":"Salta","category":"900-9300-0221"}
{"country":"ARG","ROUTING":{"latitude":-25.58935,"longitude":-54.56112},"street":"12","district":"Iguazú","placeid":"032jx7ps-2ad126c3e7e10e6ffc95fefa4adf3c93","name":"Puerto Iguazú/12/Brasil","state":"Misiones","category":"800-8100-0172"}
{"country":"ARG","ROUTING":{"latitude":-41.35253,"longitude":-71.59921},"district":"Bariloche","placeid":"032jx7ps-c06d30f8bc500319cae05a22d362a32f","name":"Parque Nacional Nahuel Huapi","state":"Río Negro","category":"550-5510-0202"}
{"country":"ARG","ROUTING":{"latitude":-38.01447,"longitude":-65.58451},"district":"Lihuel Calel","placeid":"032jx7ps-3b85c6e51a3f0406a5c93d2087dc798a","name":"Parque Nacional Lihué Calel","state":"La Pampa","category":"550-5510-0202"}
{"country":"ARG","DISPLAY":{"latitude":-22.0534628,"longitude":-63.6842973},"ROUTING":{"latitude":-22.05346,"longitude":-63.6843},"city":"Salvador Mazza","street":"34","district":"General José de San Martín","placeid":"032jx7ps-a90c1ee74a2400101f2955ca7e532f27","name":"Salvador Mazza/34/Bolivia","state":"Salta","category":"800-8100-0172"}
{"country":"ARG","ROUTING":{"latitude":-27.37307,"longitude":-55.87163},"street":"Puente Internacional Posadas Encarnación","district":"Posadas","placeid":"0326g0k2-b6807a520e43472e884ef3f10f21b92f","name":"Posadas/Mitre/Paraguay","state":"Misiones","category":"800-8100-0172"}
{"country":"ARG","ROUTING":{"latitude":-32.94748,"longitude":-60.62957},"city":"Rosario","PHONE":"+543414802238","placeid":"0326dhus-d10af935be5d46b6ac0f0c1587345651","EMAIL":"info@monumentoalabandera.gov.ar","OTHER":"http://www.facebook.com/807243012626714","DISPLAY":{"latitude":-32.94762,"longitude":-60.63083},"street":"Avenida Belgrano Bis","district":"Rosario","name":"Monumento Nacional a la Bandera","WEBADDRESS":"http://www.monumentoalabandera.gob.ar","state":"Santa Fe","category":"300-3000-0000"}
{"country":"ARG","ROUTING":{"latitude":-26.25467,"longitude":-53.64348},"street":"Paso Inter. B. de Irigoyen-Dionisio C.","district":"General Manuel Belgrano","placeid":"032jx7ps-dcb09555e1b806ff064de8bf4e4e63c5","name":"General Manuel Belgrano/14/Brasil","state":"Misiones","category":"800-8100-0172"}
{"country":"ARG","ROUTING":{"latitude":-34.6011,"longitude":-58.38244},"city":"San Nicolás","PHONE":"+541143787100","placeid":"03269y7p-8fe19d9e507544b58542fa0af8ccbcec","EMAIL":"info@teatrocolon.org.ar","OTHER":"http://www.facebook.com/1447108182212859","DISPLAY":{"latitude":-34.60112,"longitude":-58.38279},"street":"Cerrito","district":"Ciudad de Buenos Aires","name":"Teatro Colón","WEBADDRESS":"http://www.fundaciontcolon.org.ar/detalle.php?a=tienda---recuerdos-de-buenos-aires---regalos-teatro-colon&t=3&d=39","state":"Ciudad Autónoma de Buenos Aires","category":"300-3000-0000"}
{"country":"ARG","ROUTING":{"latitude":-54.84009,"longitude":-68.30394},"PHONE":"+542901431232","district":"Ushuaia","placeid":"0324qr2j-f08b3c5d73c0462a9028cd0dcb76de42","name":"Aeropuerto Internacional de Ushuaia","state":"T. del Fgo., Ant. E Is. del Atl. S.","category":"400-4000-4581"}
{"country":"ARG","DISPLAY":{"latitude":-34.60987,"longitude":-58.39292},"ROUTING":{"latitude":-34.60979,"longitude":-58.39194},"city":"Balvanera","street":"Avenida Entre Ríos","PHONE":"+541140103000","district":"Ciudad de Buenos Aires","placeid":"03269y7p-c18cc641fd524716856c25971c1790b2","name":"Congreso de la Nación Argentina","WEBADDRESS":"http://www.congreso.gob.ar","state":"Ciudad Autónoma de Buenos Aires","category":"900-9300-0221"}
{"country":"ARG","ROUTING":{"latitude":-29.23725,"longitude":-59.58153},"city":"Puerto Reconquista","district":"General Obligado","placeid":"0326dv9s-06f5aa92d51a4b64bc0c60df209544ec","name":"Reserva Natural de la Defensa Isla del Tala","state":"Santa Fe","category":"550-5510-0202"}
{"country":"ARG","ROUTING":{"latitude":-34.58429,"longitude":-58.39314},"city":"Recoleta","PHONE":"+541148038817","placeid":"03269y7r-a3548330ce0e466fad6acb3a317c7dcb","EMAIL":"info@mnba.gob.ar","OTHER":"http://www.facebook.com/123117887736913","DISPLAY":{"latitude":-34.584,"longitude":-58.39292},"street":"Avenida del Libertador","district":"Ciudad de Buenos Aires","name":"Museo Nacional de Bellas Artes","WEBADDRESS":"http://www.bellasartes.gob.ar","state":"Ciudad Autónoma de Buenos Aires","category":"300-3000-0000"}
{"country":"ARG","ROUTING":{"latitude":-47.90609,"longitude":-71.96983},"street":"37","district":"Río Chico","placeid":"032jx7ps-29b8750634b90659f26efab192b90c21","name":"Parque Nacional Perito Moreno","state":"Santa Cruz","category":"550-5510-0202"}
{"country":"ARG","ROUTING":{"latitude":-26.87297,"longitude":-68.29758},"street":"60","district":"Tinogasta","placeid":"032jx7ps-eb4f52d22b3b013c6755eb0ca3eae957","name":"Tinogasta/60/Chile","state":"Catamarca","category":"800-8100-0172"}
{"country":"ARG","DISPLAY":{"latitude":-34.81372,"longitude":-58.54114},"ROUTING":{"latitude":-34.80976,"longitude":-58.54344},"city":"Aeropuerto Ezeiza","street":"Autopista Teniente General P. Ricchieri","PHONE":"+541154806111","district":"Ezeiza","placeid":"03269y3g-f506232045044548b9a3440d40035a0c","name":"Aeropuerto Internacional de Ezeiza","state":"Buenos Aires","category":"900-9300-0221"}
{"country":"ARG","DISPLAY":{"latitude":-40.712711,"longitude":-71.9443248},"ROUTING":{"latitude":-40.71271,"longitude":-71.94432},"street":"231","district":"Los Lagos","placeid":"032jx7ps-f167895a2c25058d4fe91642d8b5080c","name":"Los Lagos/231/Chile","state":"Neuquén","category":"800-8100-0172"}
{"country":"ARG","DISPLAY":{"latitude":-51.5861066,"longitude":-72.3482319},"ROUTING":{"latitude":-51.5861,"longitude":-72.34823},"street":"20","district":"Güer Aike","placeid":"1524qud3-0d1853e74628428389154ed17931dd95","name":"Güer Aike/20/Chile","state":"Santa Cruz","category":"800-8100-0172"}
{"country":"ARG","ROUTING":{"latitude":-31.27297,"longitude":-57.94213},"street":"15","district":"Concordia","placeid":"032jx7ps-9ea3281e169504e1386a152f7235798e","name":"Concordia/15/Uruguay","state":"Entre Ríos","category":"800-8100-0172"}
{"country":"ARG","DISPLAY":{"latitude":-45.79006,"longitude":-67.46902},"ROUTING":{"latitude":-45.79066,"longitude":-67.46701},"district":"Escalante","placeid":"032jx7ps-dfd1262eefc00d51ddd1bcce987d2260","name":"Aerop. Inter. Gral. Enrique Mosconi","state":"Chubut","category":"900-9300-0221"}
{"country":"ARG","ROUTING":{"latitude":-34.60802,"longitude":-58.37332},"city":"San Nicolás","PHONE":"+541143312845","placeid":"03269y7p-c291f7cb25ee43b1991bbc9d2e0fccc7","EMAIL":"info@catedralbuenosaires.org.ar","OTHER":"http://www.facebook.com/1699259810086520","DISPLAY":{"latitude":-34.60761,"longitude":-58.37318},"street":"Avenida Rivadavia","district":"Ciudad de Buenos Aires","name":"Catedral de Buenos Aires","WEBADDRESS":"http://www.catedralbuenosaires.org.ar","state":"Ciudad Autónoma de Buenos Aires","category":"300-3000-0000"}
{"country":"ARG","DISPLAY":{"latitude":-43.175388,"longitude":-71.7546609},"ROUTING":{"latitude":-43.17539,"longitude":-71.75466},"street":"259","district":"Futaleufú","placeid":"032jx7ps-54b4568d2e1508b7fd9d1f13a5ffa60d","name":"Futaleufú/259/Chile","state":"Chubut","category":"800-8100-0172"}
{"country":"ARG","DISPLAY":{"latitude":-51.2486268,"longitude":-72.2549952},"ROUTING":{"latitude":-51.24862,"longitude":-72.25499},"street":"40","district":"Güer Aike","placeid":"032jx7ps-cf7cf93336670a35b04b30d09fbbf405","name":"Güer Aike/40/Chile","state":"Santa Cruz","category":"800-8100-0172"}
{"country":"ARG","ROUTING":{"latitude":-22.72639,"longitude":-64.36905},"street":"50","district":"Orán","placeid":"032jx7ps-362f4f97065b0b7530b1a821c4fade0e","name":"Aguas Blancas/50/Bolivia","state":"Salta","category":"800-8100-0172"}
{"country":"ARG","DISPLAY":{"latitude":-32.91697,"longitude":-60.78043},"ROUTING":{"latitude":-32.9171,"longitude":-60.78014},"PHONE":"+543414516300","district":"Rosario","placeid":"0326dhub-564d54dddfbb468d84bac1dce3c0de7c","name":"Aeropuerto Internacional Rosario Islas Malvinas","WEBADDRESS":"http://www.aeropuertorosario.com","state":"Santa Fe","category":"900-9300-0221"}
{"OTHER":"https://www.twitter.com/parquesoficial","country":"ARG","ROUTING":{"latitude":-40.78299,"longitude":-71.65987},"street":"Boulevard Quetrihue","PHONE":"+542944423121","district":"Los Lagos","placeid":"032jx7ps-cca8980c2e3b057b668b7c10f5356337","name":"Istmo de Quetrihue","WEBADDRESS":"http://www.parquesnacionales.gob.ar/areas-protegidas/region-patagonia/pn-los-arrayanes/","state":"Neuquén","category":"300-3000-0023","EMAIL":"nahuelhuapi@apn.gov.ar"}
{"country":"ARG","DISPLAY":{"latitude":-37.93334,"longitude":-57.58151},"ROUTING":{"latitude":-37.93305,"longitude":-57.5819},"city":"Mar del Plata","PHONE":"+542234785811","district":"General Pueyrredón","placeid":"03269r01-7cc55bab77984285b609985ac933bbec","name":"Aerop. Inter. de Mar del Plata Astor Piazzolla","state":"Buenos Aires","category":"900-9300-0221"}
{"country":"ARG","DISPLAY":{"latitude":-34.62832,"longitude":-58.38037},"ROUTING":{"latitude":-34.62786,"longitude":-58.37955},"city":"Constitución","street":"General Hornos","PHONE":"+548003627622","district":"Ciudad de Buenos Aires","placeid":"03269y7p-ce004dad051441b09784c53f55fe1510","name":"Estación Plaza Constitución","state":"Ciudad Autónoma de Buenos Aires","category":"300-3000-0025"}
{"country":"ARG","ROUTING":{"latitude":-25.68691,"longitude":-54.45566},"PHONE":"+543757420722","district":"Iguazú","placeid":"032jx7ps-e6a47598dcb304a7ac0820078e911bfc","name":"Parque Nacional Iguazú","WEBADDRESS":"http://www.iguazuargentina.com/","state":"Misiones","category":"550-5510-0202","FAX":"03757 42-0382","EMAIL":"iguazu@apn.gov.ar"}
{"OTHER":"http://www.facebook.com/545415852301140","country":"ARG","DISPLAY":{"latitude":-34.60842,"longitude":-58.37025},"ROUTING":{"latitude":-34.60837,"longitude":-58.37092},"city":"Montserrat","street":"Balcarce","district":"Ciudad de Buenos Aires","placeid":"03269y7p-6dc6f3d04d2b401a9504c2a4b7b86b52","name":"Casa Rosada","WEBADDRESS":"http://www.casarosada.gob.ar","state":"Ciudad Autónoma de Buenos Aires","category":"700-7400-0289"}
{"country":"ARG","DISPLAY":{"latitude":-45.9143185,"longitude":-71.6459128},"ROUTING":{"latitude":-45.91431,"longitude":-71.64591},"street":"260","district":"Río Senguer","placeid":"032jx7ps-63eb42c141a706dd351445f421ab96dd","name":"Río Senguer/260/Chile","state":"Chubut","category":"800-8100-0172"}
{"country":"ARG","ROUTING":{"latitude":-31.53387,"longitude":-68.52892},"city":"San Juan","PHONE":"+542644224603","placeid":"03266rk8-7ce5efcc78d742d5a465ee1fc5d51254","EMAIL":"servicios@casanatalsarmiento.com.ar","OTHER":"http://www.facebook.com/219896028050408","street":"Domingo F. Sarmiento Norte","district":"San Juan","name":"Casa Natal de Sarmiento","WEBADDRESS":"http://casanatalsarmiento.cultura.gob.ar/","state":"San Juan","category":"300-3000-0000"}
{"country":"ARG","ROUTING":{"latitude":-34.63662,"longitude":-58.36459},"city":"Boca","PHONE":"+541157771200","placeid":"03269y6z-fa08f61c7c3c4a04a769a137d096f476","EMAIL":"infosocios@bocajuniors.com.ar","OTHER":"http://www.facebook.com/120364393625","DISPLAY":{"latitude":-34.63572,"longitude":-58.36483},"street":"Brandsen","district":"Ciudad de Buenos Aires","name":"La Bombonera","WEBADDRESS":"http://www.bocajuniors.com.ar","state":"Ciudad Autónoma de Buenos Aires","category":"300-3000-0000"}
{"country":"ARG","DISPLAY":{"latitude":-51.61184,"longitude":-69.30625},"ROUTING":{"latitude":-51.61189,"longitude":-69.30647},"street":"Acceso a Aeropuerto","PHONE":"+542966442340","district":"Güer Aike","placeid":"0324qydr-f225869545204cab8e2a79fa6f831bfc","name":"Aeropuerto Internacional Río Gallegos","state":"Santa Cruz","category":"900-9300-0221"}
{"country":"ARG","ROUTING":{"latitude":-32.94737,"longitude":-60.63065},"city":"Rosario","street":"Santa Fe","district":"Rosario","placeid":"0326dhus-991d8f5372ca417a9278549de059de05","name":"Propileo Triunfal de la Patria","WEBADDRESS":"http://www.monumentoalabandera.gob.ar/page/recorrido/id/2/title/Propileo-Triunfal-de-la-Patria","state":"Santa Fe","category":"300-3000-0025"}
{"country":"ARG","ROUTING":{"latitude":-25.26436,"longitude":-57.72453},"street":"11","district":"Pilcomayo","placeid":"0326ewbq-f8fd2483675b4d39bec83498e652ee76","name":"Clorinda/11/Paraguay","state":"Formosa","category":"800-8100-0172"}
{"country":"ARG","DISPLAY":{"latitude":-33.1000606,"longitude":-58.2486829},"ROUTING":{"latitude":-33.10006,"longitude":-58.24868},"street":"Puente Inter. General San Martín","district":"Gualeguaychú","placeid":"032jx7ps-4f34221675b100df5a5341b297baa380","name":"Gualeguaychú/136/Uruguay","state":"Entre Ríos","category":"800-8100-0172"}
{"country":"ARG","ROUTING":{"latitude":-34.63441,"longitude":-58.45837},"city":"Flores","street":"Membrillar","district":"Ciudad de Buenos Aires","placeid":"032jx7ps-d7e39da6dfdf09ac37f3e63880e5ff25","name":"Casa del Papa Francisco","state":"Ciudad Autónoma de Buenos Aires","category":"300-3000-0023"}
{"country":"AUS","ROUTING":{"latitude":-37.80339,"longitude":144.97388},"city":"Carlton","PHONE":"+61383417777","placeid":"036r1r0f-9ef23f7d69fe4028a9de4ef5a74fac63","EMAIL":"mmartin@museum.vic.gov.au","OTHER":"http://www.facebook.com/24303483921","DISPLAY":{"latitude":-37.80317,"longitude":144.9718},"street":"Nicholson St","district":"Melbourne","name":"Melbourne Museum","WEBADDRESS":"https://museumvictoria.com.au/melbournemuseum/","state":"Victoria","category":"300-3000-0000"}
{"country":"AUS","ROUTING":{"latitude":-35.2841,"longitude":149.14551},"city":"Reid","street":"Anzac Pde","PHONE":"+61262722902","district":"Canberra","placeid":"036r3dp3-131a97f0911d4b999e16ef392604c285","name":"Australian Army National Memorial","WEBADDRESS":"http://www.nationalcapital.gov.au/index.php/attractions-managed-by-the-nca/national-capital-exhibition","state":"Australian Capital Territory","category":"300-3000-0000"}
{"country":"AUS","ROUTING":{"latitude":-37.82298,"longitude":144.97896},"city":"Melbourne","PHONE":"+61392861600","district":"Melbourne","placeid":"036jx7ps-d4588adeb99f040b3ef8ddc26734b063","name":"Melbourne Olympic Park","WEBADDRESS":"https://mopt.com.au/","state":"Victoria","category":"350-3550-0336"}
{"country":"AUS","ROUTING":{"latitude":-37.82127,"longitude":144.95828},"city":"Melbourne","PHONE":"+61399200999","placeid":"036r1r0f-084f3b605d9940dbbef507ea16dd3d44","TOLLFREE":"1800-026576","EMAIL":"info@melbourneaquarium.com.au","OTHER":"https://www.twitter.com/melbaquarium","district":"Melbourne","name":"Melbourne Aquarium","WEBADDRESS":"https://www.melbourneaquarium.com.au/","state":"Victoria","category":"300-3000-0000","FAX":"(03) 9620 0222"}
{"OTHER":"http://www.facebook.com/240623713297621","country":"AUS","ROUTING":{"latitude":-30.60315,"longitude":115.15463},"street":"Pinnacles Dr","PHONE":"+61896527672","district":"Nambung","placeid":"036qd9cu-654b140ffe2745e3aabab86685c9c17d","name":"The Pinnacles","WEBADDRESS":"http://www.australia.com/en-nz/places/wa/wa-pinnacles-nambung-national-park.html","state":"Western Australia","category":"300-3000-0000","EMAIL":"enquiries@visitpinnaclescountry.com.au"}
{"OTHER":"https://www.facebook.com/921659154526400","country":"AUS","ROUTING":{"latitude":-35.2868,"longitude":149.1431},"city":"Reid","street":"Anzac Pde","PHONE":"+61262722902","district":"Canberra","placeid":"036r3dp3-8bd881472f81490e8e0fc98a34fbe2af","name":"Australian Vietnam Forces Memorial","WEBADDRESS":"http://www.nationalcapital.gov.au/index.php?option=com_content&view=article&id=213&Itemid=202&limitstart=5","state":"Australian Capital Territory","category":"300-3000-0000"}
{"country":"AUS","ROUTING":{"latitude":-33.8562007,"longitude":151.2149219},"city":"Sydney","PHONE":"+61293188200","placeid":"036r3gx2-411e1ee467ec494683e0d5fdd2961d4b","EMAIL":"ticketing@opera.org.au","OTHER":"http://www.facebook.com/146059442173111","DISPLAY":{"latitude":-33.8562007,"longitude":151.2149219},"district":"Sydney","name":"Opera at the Sydney Opera House","WEBADDRESS":"https://opera.org.au/sydney","state":"New South Wales","category":"102-000","FAX":"(02) 9251 3943"}
{"country":"AUS","ROUTING":{"latitude":-33.84968,"longitude":151.21175},"city":"Milsons Point","PHONE":"+61299226644","placeid":"036r3gx2-f9d11171534c4cdd8c238ba7771d7cb5","EMAIL":"tourism@lunaparksydney.com","OTHER":"http://www.facebook.com/329374000504623","DISPLAY":{"latitude":-33.8495911,"longitude":151.2116771},"street":"Olympic Dr","district":"Sydney","name":"Luna Park","WEBADDRESS":"http://www.lunaparksydney.com","state":"New South Wales","category":"150-000","FAX":"(02) 9929 7580"}
{"country":"AUS","ROUTING":{"latitude":-36.34767,"longitude":150.0097},"street":"Princes Hwy","district":"Tilba Tilba","placeid":"036r3d9j-b7960e1f41b34b8c8a485b8f419a575c","name":"Gulaga National Park","state":"New South Wales","category":"550-5510-0202"}
{"OTHER":"http://www.facebook.com/156624701826366","country":"AUS","ROUTING":{"latitude":-28.06878,"longitude":153.37851},"city":"Robina","street":"Centreline Pl","PHONE":"+61756565500","district":"Gold Coast","placeid":"036jx7ps-d6ea98fa27d40e286bce536ae103fa3e","name":"Cbus Super Stadium","WEBADDRESS":"http://cbussuperstadium.com.au","state":"Queensland","category":"300-3000-0000"}
{"country":"AUS","ROUTING":{"latitude":-17.95408,"longitude":122.23357},"city":"Djugun","street":"MacPherson St","PHONE":"+61891940600","district":"Broome","placeid":"036qsycv-78bd377a3e0445a4bd445012dc90c46c","name":"Broome International Airport","WEBADDRESS":"http://www.broomeair.com.au","state":"Western Australia","category":"400-4000-4581","EMAIL":"admin@broomeair.com.au"}
{"OTHER":"http://www.facebook.com/117478201629507","country":"AUS","ROUTING":{"latitude":-38.40841,"longitude":145.02666},"street":"Shoreham Rd","PHONE":"+61359898412","district":"Red Hill South","placeid":"036r1pjk-c18301727a724ea2968c079904512bc8","name":"Montalto Vineyard & Olive Grove","WEBADDRESS":"http://www.montalto.com.au","state":"Victoria","category":"800-057","EMAIL":"info@montalto.com.au"}
{"country":"AUS","ROUTING":{"latitude":-29.00885,"longitude":134.75839},"street":"Italian Club Rd","PHONE":"+61886725264","district":"Coober Pedy","placeid":"036qfzff-f1a8843f97054fd3a9653ac1d101c9fa","name":"Big Winch Lookout","state":"South Australia","category":"900-9300-0221"}
{"country":"AUS","ROUTING":{"latitude":-23.70087,"longitude":133.82951},"city":"Flynn","PHONE":"+61889518788","placeid":"036qgz1j-eda9bb826eea41b7b6a7ae71a7a52dca","EMAIL":"asdp@nt.gov.au","OTHER":"http://www.facebook.com/209421845801847","street":"Desert Park Ent","district":"Alice Springs","name":"Alice Springs Desert Park","WEBADDRESS":"http://www.alicespringsdesertpark.com.au/","state":"Northern Territory","category":"300-3000-0000","FAX":"(08) 8951 8720"}
{"country":"AUS","ROUTING":{"latitude":-41.33972,"longitude":147.02101},"street":"Rosevears Dr","PHONE":"+61363302388","district":"Rosevears","placeid":"036r28sc-85f17b3e1bec43778c4e4ec0817eeff5","name":"Ninth Island Vineyard","WEBADDRESS":"https://strathlynn.com.au/","state":"Tasmania","category":"300-3000-0065"}
{"OTHER":"http://www.facebook.com/107307542631741","country":"AUS","ROUTING":{"latitude":-26.56298,"longitude":153.07749},"city":"Mount Coolum","street":"South Coolum Rd","PHONE":"+61754473243","district":"Sunshine Coast","placeid":"036r7kbg-dbeb81cc36f64796bc3ef4f978606286","name":"Mount Coolum National Park","WEBADDRESS":"http://www.nprsr.qld.gov.au/parks/mount-coolum","state":"Queensland","category":"300-3000-0000"}
{"country":"AUS","ROUTING":{"latitude":-34.7016,"longitude":143.59291},"district":"Yanga","placeid":"036r1y4e-5dbefb74fb784d23bda2a439b4d39b34","name":"Yanga National Park","state":"New South Wales","category":"550-5510-0202"}
{"country":"AUS","ROUTING":{"latitude":-17.64781,"longitude":145.71888},"street":"Maple Creek Rd","district":"Mamu","placeid":"036rhzed-c8929b9c15584af3b82eeef6ba6c2da5","name":"Wooroonooran National Park","state":"Queensland","category":"550-5510-0202"}
{"country":"AUS","ROUTING":{"latitude":-24.29069,"longitude":131.55021},"PHONE":"+61889567460","district":"Petermann","placeid":"036jx7ps-6bb58babd66b0a3548edc77feb6bb167","name":"Watarrka National Park","state":"Northern Territory","category":"550-5510-0202"}
{"country":"AUS","ROUTING":{"latitude":-37.82865,"longitude":145.35204},"city":"Mount Dandenong","street":"Observatory Rd","district":"Melbourne","placeid":"036r1r2g-07d3095482d541499a3a750edc1db2e3","name":"Dandenong Ranges National Park - Mt Dandenong","state":"Victoria","category":"550-5510-0202"}
{"country":"AUS","ROUTING":{"latitude":-26.92334,"longitude":152.95736},"street":"Glass House Mountains Rd","PHONE":"+61754943983","district":"Glass House Mountains (East)","placeid":"036jx7ps-f9a57e4fc78f085056d9ded32f14de82","name":"Glass House Mountains National Park-Mt Tibrogargan","WEBADDRESS":"http://nprsr.qld.gov.au/parks/glass-house-mountains/index.html","state":"Queensland","category":"550-5510-0202"}
{"country":"AUS","ROUTING":{"latitude":-35.87378,"longitude":139.40854},"PHONE":"+61885751200","district":"Coorong","placeid":"036r1e5u-7435a1c20ddb44ec85211c2ea4f2c8c5","name":"Coorong National Park","state":"South Australia","category":"550-5510-0202"}
{"country":"AUS","ROUTING":{"latitude":-41.43298,"longitude":147.13743},"city":"Launceston","street":"Shields St","PHONE":"+61363326332","district":"Launceston","placeid":"036r28sk-cf7d42585bc64e489536a43533eb6077","name":"James Boag Brewery","state":"Tasmania","category":"300-3000-0023"}
{"country":"AUS","ROUTING":{"latitude":-33.85872,"longitude":151.20677},"city":"Dawes Point","street":"Sydney Harbour Brg","district":"Sydney","placeid":"036r3gx2-73bd4f0adb814d4ca610246563d909aa","name":"Sydney Harbour Bridge","state":"New South Wales","category":"300-3000-0023"}
{"country":"AUS","ROUTING":{"latitude":-33.7298977,"longitude":150.311775},"city":"Katoomba","PHONE":"+611300361967","placeid":"036r64bh-d9e360280c2d466299d8440911b8c9f7","TOLLFREE":"1300653408","EMAIL":"bluemountains.heritagecentre@environment.nsw.gov.au","OTHER":"http://www.facebook.com/2107659636229591","DISPLAY":{"latitude":-33.7298977,"longitude":150.311775},"street":"Echo Point Rd","district":"Katoomba","name":"Echo Point Lookout","WEBADDRESS":"http://www.nationalparks.nsw.gov.au/things-to-do/walking-tracks/three-sisters-walk","state":"New South Wales","category":"300-3000-0000"}
{"country":"AUS","ROUTING":{"latitude":-42.13495,"longitude":146.22858},"street":"Lake St Clair Rd","PHONE":"+61362891172","district":"Derwent Bridge","placeid":"036r0xbr-f8ef495c94544564a5786f011da4e0ab","name":"Lake St Clair","state":"Tasmania","category":"550-5510-0202"}
{"country":"AUS","ROUTING":{"latitude":-33.84784,"longitude":151.06809},"city":"Sydney Olympic Park","street":"Showground Rd","PHONE":"+61297147888","district":"Sydney","placeid":"036jx7ps-2b8fee373a7e0bd9f9ca39259a6b2cc6","name":"Sydney Olympic Park","WEBADDRESS":"http://www.sydneyolympicpark.com.au/","state":"New South Wales","category":"300-3000-0000"}
{"country":"AUS","ROUTING":{"latitude":-31.95531,"longitude":115.84876},"city":"Perth","street":"Mounts Bay Rd","district":"Perth","placeid":"036qd66h-f637bdb0941c41bb859e8e7c07d6caad","name":"West Perth Botanic Gardens","state":"Western Australia","category":"350-3550-0336"}
{"country":"AUS","ROUTING":{"latitude":-26.68355,"longitude":153.12394},"city":"Mooloolaba","PHONE":"+61754448595","placeid":"036r7kbh-2310f0c9321a4a33b842ee578e48299a","EMAIL":"shark@underwaterworld.com.au","OTHER":"http://www.facebook.com/1958599664156728","DISPLAY":{"latitude":-26.68347,"longitude":153.124},"street":"Parkyn Pde","district":"Sunshine Coast","name":"Sea Life Sunshine Coast","WEBADDRESS":"http://www.underwaterworld.com.au","state":"Queensland","category":"550-5520-0228","FAX":"(07) 5444 8515"}
{"country":"AUS","ROUTING":{"latitude":-25.28603,"longitude":130.74172},"street":"Valley of the Winds","district":"Petermann","placeid":"036qgsbp-bf5b5d53bc0a4ca8a4dbbc74b731e111","name":"Kata-Tjuta","state":"Northern Territory","category":"900-9300-0221"}
{"country":"AUS","ROUTING":{"latitude":-33.83676,"longitude":151.26043},"city":"Mosman","street":"Chowder Bay Rd","district":"Sydney","placeid":"036r3gxd-fbeadcce996449de9687f2955364fbd5","name":"Sydney Harbour National Park","state":"New South Wales","category":"550-5510-0202"}
{"country":"AUS","ROUTING":{"latitude":-34.37172,"longitude":115.13603},"street":"Leeuwin Rd","PHONE":"+61897805911","district":"Leeuwin","placeid":"036q9cu7-485da882521a428b843393f098822760","name":"Cape Leeuwin Light House","WEBADDRESS":"https://www.margaretriverattractions.com/lighthouses/cape-leeuwin-lighthouse/","state":"Western Australia","category":"300-3000-0000","EMAIL":"attractions@margaretriver.com"}
{"country":"AUS","ROUTING":{"latitude":-32.04864,"longitude":115.85957},"city":"Bull Creek","PHONE":"+61893114470","placeid":"036qd63s-e6e61b3915934207842e07cb84e2f2f5","EMAIL":"museum@raafawa.org.au","OTHER":"http://www.facebook.com/452984798116548","street":"Bull Creek Dr","district":"Perth","name":"Aviation Heritage Museum","WEBADDRESS":"http://www.raafawa.org.au/","state":"Western Australia","category":"300-3000-0000"}
{"OTHER":"http://www.facebook.com/119922738086362","country":"AUS","ROUTING":{"latitude":-31.82648,"longitude":115.73799},"city":"Hillarys","street":"Southside Dr","PHONE":"+61894477500","district":"Perth","placeid":"036qd66c-8e2ad721648641b5b769f710f5cdc44a","name":"The Aquarium of Western Australia","WEBADDRESS":"http://www.aqwa.com.au","state":"Western Australia","category":"150-000"}
{"country":"AUS","ROUTING":{"latitude":-36.36739,"longitude":148.58843},"street":"Kosciuszko Road","PHONE":"+61264505600","district":"Kosciuszko National Park","placeid":"036r399j-2d365ddf4a9443db9424abcde6cbeabd","name":"Kosciuszko National Park","state":"New South Wales","category":"550-5510-0202"}
{"country":"AUS","ROUTING":{"latitude":-32.73179,"longitude":152.17102},"street":"Sylvia St","PHONE":"+61249848200","district":"Shoal Bay","placeid":"036r6hjy-c7471c722e2c4a74819b4b91887cb4f7","name":"Tomaree National Park","state":"New South Wales","category":"550-5510-0202"}
{"country":"AUS","ROUTING":{"latitude":-26.83806,"longitude":152.95852},"PHONE":"+61754362000","placeid":"036r7hz2-bd8c61f8616c4f6abdeac7a7787203a6","EMAIL":"info@australiazoo.com.au","OTHER":"https://www.twitter.com/wildwarriors","DISPLAY":{"latitude":-26.83806,"longitude":152.95972},"street":"Steve Irwin Way","district":"Beerwah","name":"Australia Zoo","WEBADDRESS":"http://www.australiazoo.com.au","state":"Queensland","category":"300-3000-0000","FAX":"(07) 5494 8604"}
{"country":"AUS","ROUTING":{"latitude":-26.42218,"longitude":153.02802},"city":"Noosaville","street":"Eumundi Noosa Rd","district":"Sunshine Coast","placeid":"036jx7ps-b928cfd48d4f077ee60b1c49d8d0d369","name":"Tewantin National Park","state":"Queensland","category":"550-5510-0204"}
{"country":"AUS","ROUTING":{"latitude":-37.81939,"longitude":144.96051},"city":"Melbourne","PHONE":"+61131102","placeid":"036r1r0f-5d99c20254c64a98921f3e1de8cddad6","EMAIL":"mvbookings@museum.vic.gov.au","OTHER":"http://www.facebook.com/297093110429","DISPLAY":{"latitude":-37.81899,"longitude":144.96034},"street":"Flinders St","district":"Melbourne","name":"Immigration Museum","WEBADDRESS":"https://museumsvictoria.com.au/immigrationmuseum","state":"Victoria","category":"300-3000-0000"}
{"country":"AUS","ROUTING":{"latitude":-37.67394,"longitude":144.84971},"city":"Melbourne Airport","PHONE":"+61392971600","district":"Melbourne","placeid":"036r1r18-57c4af4a9f7145e59b01cccf9011bed1","name":"Melbourne-T4 Arrivals","state":"Victoria","category":"400-4000-4582"}
{"country":"AUS","DISPLAY":{"latitude":-33.53913,"longitude":150.42372},"ROUTING":{"latitude":-33.53913,"longitude":150.42372},"PHONE":"+61245673000","district":"Mount Tomah","placeid":"036r64cn-70a961111a484e5c8df7fcaea6096749","name":"The Blue Mountains Botanic Garden, Mount Tomah","WEBADDRESS":"http://www.bluemountainsbotanicgarden.com.au","state":"New South Wales","category":"350-3550-0336","EMAIL":"tomah@rbgsyd.nsw.gov.au"}
{"country":"AUS","ROUTING":{"latitude":-34.8252,"longitude":135.8406},"street":"Donington Rd","PHONE":"+61886883111","district":"Lincoln National Park","placeid":"036jx7ps-2cab029ce0e0064b87d32f7e506bd3ab","name":"Lincoln National Park","WEBADDRESS":"http://www.environment.sa.gov.au/parks/Find_a_Park/Browse_by_region/Eyre_Peninsula/Lincoln_National_Park","state":"South Australia","category":"550-5510-0202"}
{"country":"AUS","ROUTING":{"latitude":-33.98316,"longitude":115.05586},"PHONE":"+61897572581","placeid":"036jx7ps-872337481dd20d9f82b83a33bd540024","EMAIL":"info@xanaduwines.com","OTHER":"http://www.facebook.com/158016178841","DISPLAY":{"latitude":-33.98446,"longitude":115.05745},"street":"Boodjidup Rd","district":"Margaret River","name":"Xanadu Wines","WEBADDRESS":"http://www.xanaduwines.com","state":"Western Australia","category":"600-6300-0068","FAX":"(08) 9757 3389"}
{"OTHER":"https://www.facebook.com/wamuseum","country":"AUS","ROUTING":{"latitude":-31.9491,"longitude":115.86207},"city":"Perth","street":"Francis St","PHONE":"+61894272700","district":"Perth","placeid":"036qd66h-00e6f1632e274f75a22436ee5ef29729","name":"Western Australia Museum","WEBADDRESS":"http://museum.wa.gov.au/museums/perth","state":"Western Australia","category":"300-3000-0000"}
{"country":"AUS","ROUTING":{"latitude":-37.8306577,"longitude":144.9791391},"city":"Melbourne","PHONE":"+61392522300","placeid":"036r1r0g-abf6ff9212ce41a7a452a2b9d0d3f8c0","EMAIL":"rbg@rbg.vic.gov.au","OTHER":"http://www.facebook.com/273198603608757","DISPLAY":{"latitude":-37.8306577,"longitude":144.9791391},"district":"Melbourne","name":"Royal Botanic Gardens Victoria, Melbourne Gardens","WEBADDRESS":"https://www.rbg.vic.gov.au/","state":"Victoria","category":"300-3000-0000","FAX":"(03) 9252 2350"}
{"OTHER":"http://www.facebook.com/167130503326241","country":"AUS","ROUTING":{"latitude":-33.80945,"longitude":151.26795},"city":"Balgowlah Heights","street":"Dobroyd Scenic Dr","PHONE":"+61293375511","district":"Sydney","placeid":"036r3gxd-73ad2c85aafd413aaca2a2c239b1f590","name":"Sydney Harbour National Park","WEBADDRESS":"http://www.environment.nsw.gov.au/NationalParks/parkHome.aspx?id=N0039","state":"New South Wales","category":"800-8600-0000"}
{"country":"AUS","DISPLAY":{"latitude":-35.1185,"longitude":139.13914},"ROUTING":{"latitude":-35.11851,"longitude":139.13912},"street":"Old Princes Hwy","PHONE":"+61885344100","district":"Monarto","placeid":"036aabd1-38fd0a1848b40670dbe5c435fd890e52","name":"Monarto Zoo","WEBADDRESS":"http://www.zoossa.com.au/monarto-zoo","state":"South Australia","category":"550-5520-0208","EMAIL":"information@zoossa.com.au"}
{"OTHER":"http://www.facebook.com/214781349300116","country":"AUS","ROUTING":{"latitude":-31.95877,"longitude":115.88042},"city":"East Perth","street":"Nelson Ave","PHONE":"+61892657222","district":"Perth","placeid":"036qd66h-a41500009e3b44f3ad5bf756613e24f3","name":"WACA Ground","WEBADDRESS":"http://waca.com.au","state":"Western Australia","category":"300-3000-0000"}
{"country":"AUS","ROUTING":{"latitude":-37.66635,"longitude":140.24319},"street":"Canunda Cswy","PHONE":"+61887351177","district":"Canunda","placeid":"036r179x-1a8a549e9dbb41b0a3201d909b9e2c53","name":"Canunda National Park","state":"South Australia","category":"550-5510-0202"}
{"OTHER":"http://www.facebook.com/201426630671357","country":"AUS","ROUTING":{"latitude":-33.67192,"longitude":151.23436},"street":"McCarrs Creek Rd","PHONE":"+61294728949","district":"Ku-Ring-Gai Chase","placeid":"036r6583-7c19aba87eb4461981a8fcdd436f54b0","name":"Ku-Ring-Gai Chase National Park","state":"New South Wales","category":"550-5510-0202"}
{"OTHER":"http://www.facebook.com/1773601319534736","country":"AUS","ROUTING":{"latitude":-13.60247,"longitude":132.21886},"street":"Kakadu Hwy","PHONE":"+61889381120","district":"Kakadu","placeid":"036qvw48-76fd950bebf043a9b55320540e393617","name":"Kakadu National Park","state":"Northern Territory","category":"550-5510-0202"}
{"OTHER":"http://www.facebook.com/2133979150207423","country":"AUS","ROUTING":{"latitude":-33.80732,"longitude":151.29652},"city":"Manly","street":"North Head Scenic Dr","PHONE":"+61292475033","district":"Sydney","placeid":"036r3gxd-c2ce225f257c42c6b572cb4d2042a1ff","name":"Sydney Harbour National Park-North Head","WEBADDRESS":"http://www.environment.nsw.gov.au/nationalparks/parkhome.aspx?id=N0039","state":"New South Wales","category":"550-5510-0202"}
{"country":"AUS","ROUTING":{"latitude":-31.96158,"longitude":115.89784},"city":"Burswood","district":"Perth","placeid":"036qd66j-6b352ef61f3245fb9b8e697fa3f04894","name":"The Dome at Crown Perth","state":"Western Australia","category":"800-8600-0180"}
{"country":"AUS","ROUTING":{"latitude":-37.84502,"longitude":145.42374},"street":"Monbulk Rd","district":"Silvan","placeid":"036r1r2t-0403df9139a44b05add1b94791566107","name":"The Tulip Farm","state":"Victoria","category":"300-3000-0023"}
{"OTHER":"https://www.twitter.com/intent","country":"AUS","ROUTING":{"latitude":-33.82212,"longitude":115.04777},"street":"Caves Rd","PHONE":"+61897555425","district":"Cowaramup","placeid":"036q9cz9-4c68f781c6874deda3776de5aa2376ae","name":"Vasse Felix","WEBADDRESS":"https://www.vassefelix.com.au","state":"Western Australia","category":"300-3000-0065","EMAIL":"info@vassefelix.com.au"}
{"country":"AUS","ROUTING":{"latitude":-31.93816,"longitude":115.92141},"city":"Ascot","PHONE":"+61892770777","placeid":"036qd66m-a555e3023aa8424692e055529739a075","EMAIL":"perthracing@perthracing.com.au","OTHER":"http://www.facebook.com/160336987340608","DISPLAY":{"latitude":-31.93853,"longitude":115.921},"street":"Grandstand Rd","district":"Perth","name":"Ascot Racecourse","WEBADDRESS":"http://www.perthracing.com.au","state":"Western Australia","category":"300-3000-0000"}
{"OTHER":"http://www.facebook.com/135741699807554","country":"AUS","ROUTING":{"latitude":-38.65479,"longitude":143.09093},"street":"Great Ocean Rd","PHONE":"+61355986161","district":"Princetown","placeid":"036r1ju0-57d5e671163f4a68b094487564e0cd71","name":"12 Apostles Marine National Park","state":"Victoria","category":"300-3000-0000"}
{"country":"AUS","ROUTING":{"latitude":-33.9324,"longitude":151.16488},"city":"Mascot","street":"Arrival Ct","PHONE":"+61133793","district":"Sydney","placeid":"036r3gqz-fe3b7ad4ec864de29bd3ea2545462c00","name":"Sydney Airport-International","WEBADDRESS":"http://sydneyairport.com.au","state":"New South Wales","category":"400-4000-4581"}
{"country":"AUS","ROUTING":{"latitude":-33.86634,"longitude":151.21252},"city":"Sydney","street":"Macquarie St","district":"Sydney","placeid":"036r3gx2-5283e70bb5c84ba9af9c856e7a268ff7","name":"Matthew Flinders Statue","WEBADDRESS":"http://monumentaustralia.org.au/themes/people/exploration/display/23234-matthew-flinders/photo/2","state":"New South Wales","category":"300-3000-0000"}
{"country":"AUS","ROUTING":{"latitude":-33.70087,"longitude":115.07755},"street":"Thornton Rd","PHONE":"+61897573177","district":"Yallingup Siding","placeid":"036qd1b6-7f74d8fdf72d443eb2173eed5fd23b10","name":"Amberley Estate","state":"Western Australia","category":"300-3000-0065"}
{"country":"AUS","ROUTING":{"latitude":-32.27209,"longitude":148.58627},"city":"Dubbo","PHONE":"+61268811400","placeid":"036r638m-928d7c31f92f422a872610f690b1298d","EMAIL":"twpz@zoo.nsw.gov.au","OTHER":"http://www.facebook.com/162191930491363","district":"Dubbo","name":"Taronga Western Plains Zoo","WEBADDRESS":"https://taronga.org.au/taronga-western-plains-zoo","state":"New South Wales","category":"300-3000-0000","FAX":"(02) 9978 4508"}
{"OTHER":"http://www.facebook.com/138050593409910","country":"AUS","ROUTING":{"latitude":-30.16582,"longitude":152.3429},"street":"The Bicentennial National Trl","PHONE":"+61266572309","district":"The Gulf","placeid":"036r6sk6-d950a3c2b5f44d4faaee9ad2438a9ceb","name":"Guy Fawkes River National Park","state":"New South Wales","category":"550-5510-0202"}
{"country":"AUS","ROUTING":{"latitude":-27.91442,"longitude":153.31864},"city":"Oxenford","PHONE":"+61133386","placeid":"036r7j10-e3670483869147d98ee5377cf5acd26f","EMAIL":"info@wetnwild.com.au","OTHER":"https://www.twitter.com/wetnwildgc","district":"Gold Coast","name":"Wet 'n' Wild","WEBADDRESS":"http://wetnwild.com.au/","state":"Queensland","category":"300-3000-0000","FAX":"(07) 5529 7055"}
{"country":"AUS","ROUTING":{"latitude":-18.72615,"longitude":138.49045},"street":"Wills Rd","PHONE":"+61747491555","district":"Lawn Hill","placeid":"036jx7ps-ee272c2472a503c16aed4cfc136b9d6d","name":"Boodjamulla National Park","state":"Queensland","category":"550-5510-0202"}
{"country":"AUS","DISPLAY":{"latitude":-37.66973,"longitude":144.84965},"ROUTING":{"latitude":-37.66977,"longitude":144.84956},"city":"Melbourne Airport","street":"Arrival Dr","PHONE":"+61392971600","district":"Melbourne","placeid":"036r1r18-c1888b09228c4e718e7dbe1400f3665b","name":"Melbourne Airport","WEBADDRESS":"http://melbourneairport.com.au","state":"Victoria","category":"300-3000-0023"}
{"OTHER":"http://www.facebook.com/606200266103312","country":"AUS","ROUTING":{"latitude":-31.95517,"longitude":115.85804},"city":"Perth","street":"St Georges Ter","PHONE":"+61892616666","district":"Perth","placeid":"036qd66h-32e6180ebff74393955df687f411007b","name":"London Court","WEBADDRESS":"http://www.londoncourt.com.au/","state":"Western Australia","category":"300-3000-0000"}
{"country":"AUS","ROUTING":{"latitude":-33.84078,"longitude":151.27763},"city":"Watsons Bay","street":"Pacific St","PHONE":"+61299606266","district":"Sydney","placeid":"036r3gxd-bda4346c4155453189ae56fdf8863926","name":"Sydney Harbour National Park","state":"New South Wales","category":"550-5510-0202"}
{"OTHER":"https://www.twitter.com/sandalfordwines","country":"AUS","ROUTING":{"latitude":-31.86879,"longitude":115.99202},"city":"Caversham","PHONE":"+61893749374","district":"Perth","placeid":"036qd66x-a0362d6cf7774470b71775180d1f079d","name":"Sandalford Estate","WEBADDRESS":"https://www.sandalford.com/contact","state":"Western Australia","category":"300-3000-0065","EMAIL":"sandalford@sandalford.com"}
{"country":"AUS","ROUTING":{"latitude":-37.9227,"longitude":144.6677},"city":"Werribee South","PHONE":"+611300966784","placeid":"036r1qbh-fc184b488bcc473f9734087866437018","TOLLFREE":"1300966874","EMAIL":"contact@zoo.org.au","OTHER":"http://www.facebook.com/2102745383328008","DISPLAY":{"latitude":-37.9227,"longitude":144.6677},"district":"Melbourne","name":"Werribee Open Range Zoo","WEBADDRESS":"https://www.zoo.org.au/werribee","state":"Victoria","category":"300-3000-0000"}
{"country":"AUS","ROUTING":{"latitude":-31.95102,"longitude":115.8609},"city":"Perth","PHONE":"+61894926600","placeid":"036qd66h-a6871fe0f9ea42448de31a473175dbef","EMAIL":"admin@artgallery.wa.gov.au","OTHER":"http://www.facebook.com/56693095850","DISPLAY":{"latitude":-31.95055,"longitude":115.86122},"street":"Roe St","district":"Perth","name":"Art Gallery of Western Australia","WEBADDRESS":"http://www.artgallery.wa.gov.au","state":"Western Australia","category":"300-3000-0000","FAX":"(08) 9492 6648"}
{"country":"AUS","ROUTING":{"latitude":-34.77328,"longitude":149.69103},"city":"Goulburn","PHONE":"+61248228013","placeid":"036r3f6n-b2d61baf8f7f46bc94402cbecde1efdd","EMAIL":"lindy.k@bigpond.com.au","OTHER":"http://www.facebook.com/161494760534821","DISPLAY":{"latitude":-34.77292,"longitude":149.6916},"street":"Sowerby St","district":"Goulburn","name":"Big Merino","WEBADDRESS":"http://www.bigmerino.com.au","state":"New South Wales","category":"300-3000-0000"}
{"OTHER":"http://www.facebook.com/139086522777279","country":"AUS","ROUTING":{"latitude":-32.99742,"longitude":148.26116},"street":"Telescope Rd","PHONE":"+61268611700","district":"Parkes","placeid":"036r61km-03736af064724b0da74aad9a283926b3","name":"The Parkes Observatory","WEBADDRESS":"http://www.parkes.atnf.csiro.au","state":"New South Wales","category":"300-3000-0000","EMAIL":"parkes-vdc@csiro.au"}
{"country":"AUS","ROUTING":{"latitude":-31.94295,"longitude":115.97307},"city":"Perth Airport","street":"Airport Dr","PHONE":"+61894788888","district":"Perth","placeid":"036qd66r-5345a1a36e9f4b1bbc9ffb2576523fed","name":"Perth Airport-International","state":"Western Australia","category":"900-9300-0221"}
{"country":"AUS","ROUTING":{"latitude":-27.96056,"longitude":153.42634},"city":"Main Beach","PHONE":"+61133386","placeid":"036r7j0g-7c0c662e089247b6906cf1f15cf9f941","TOLLFREE":"1300139677","EMAIL":"reservations@seaworldresort.com.au","OTHER":"http://www.facebook.com/147516764715","DISPLAY":{"latitude":-27.96056,"longitude":153.42634},"district":"Gold Coast","name":"Australia's Sea World","WEBADDRESS":"https://seaworld.com.au/resort","state":"Queensland","category":"300-3000-0000"}
{"country":"AUS","DISPLAY":{"latitude":-36.9755606,"longitude":147.1382487},"ROUTING":{"latitude":-36.97556,"longitude":147.13825},"street":"Great Alpine Rd","district":"Hotham Heights","placeid":"036r38e4-8f7fb63187bd4be198afb63c8c0a4ead","name":"Mt Hotham","state":"Victoria","category":"900-9100-0215"}
{"OTHER":"http://www.facebook.com/110467572372665","country":"AUS","ROUTING":{"latitude":-35.28796,"longitude":149.14277},"city":"Campbell","street":"Anzac Pde","PHONE":"+61262722902","district":"Canberra","placeid":"036r3dp3-5f5d53b6b9484c7f9a983e0eb4fa2686","name":"Rats of Tobruk Memorial","WEBADDRESS":"http://www.nationalcapital.gov.au/index.php?option=com_content&view=article&id=213&Itemid=202&limitstart=8","state":"Australian Capital Territory","category":"300-3000-0000"}
{"country":"AUS","ROUTING":{"latitude":-42.79168,"longitude":147.26571},"city":"Claremont","district":"Hobart","placeid":"036r22sx-a06fd407f2804f74bf48e4aa5af10253","name":"Cadbury Chocolate Factory","state":"Tasmania","category":"300-3000-0023"}
{"OTHER":"http://www.facebook.com/241752929505471","country":"AUS","ROUTING":{"latitude":-33.84709,"longitude":151.24589},"city":"Mosman","street":"Bradleys Head Rd","PHONE":"+61292475033","district":"Sydney","placeid":"036r3gx3-53b0347a10654a7a89c012be55239520","name":"Sydney Harbour National Park","WEBADDRESS":"http://nl.wikipedia.org/wiki/Nationaal_park_Sydney_Harbour","state":"New South Wales","category":"550-5510-0202"}
{"OTHER":"http://www.facebook.com/281450748554366","country":"AUS","DISPLAY":{"latitude":-26.6715433,"longitude":152.9911846},"ROUTING":{"latitude":-26.6715433,"longitude":152.9911846},"city":"Woombye","PHONE":"+611800132289","district":"Nambour","placeid":"036r7kb8-8e3a6377ec644e66862e82c139a3d82d","name":"The Big Pineapple","WEBADDRESS":"http://www.bigpineapple.com.au/","state":"Queensland","category":"300-3000-0000"}
{"country":"AUS","ROUTING":{"latitude":-33.8696886,"longitude":151.20116},"city":"Sydney","PHONE":"+61282517800","placeid":"036r3gx2-31de95b3610b424fae27eb6e9352fb87","TOLLFREE":"1800199657","EMAIL":"sydneyaquarium@merlinentertainments.com.au","OTHER":"http://www.facebook.com/101457709911200","DISPLAY":{"latitude":-33.8696886,"longitude":151.20116},"district":"Sydney","name":"SEA LIFE Sydney Aquarium","WEBADDRESS":"http://www.sydneyaquarium.com.au","state":"New South Wales","category":"300-3000-0000","FAX":"1800 199 657"}
{"country":"AUS","ROUTING":{"latitude":-33.84229,"longitude":151.24374},"city":"Mosman","PHONE":"+61299324246","placeid":"036r3gx3-ee5e33e7fbab46e09964e54627dea677","EMAIL":"info@wildropes.taronga.org.au","OTHER":"http://www.facebook.com/730753377015980","DISPLAY":{"latitude":-33.84229,"longitude":151.24374},"street":"Bradleys Head Rd","district":"Sydney","name":"Taronga Food Market","WEBADDRESS":"http://taronga.org.au/wildropes","state":"New South Wales","category":"150-000","FAX":"(02) 9978 4515"}
{"country":"AUS","ROUTING":{"latitude":-33.55072,"longitude":150.90757},"street":"Caddie Rd","PHONE":"+61245723100","district":"Cattai","placeid":"036r6534-5ece8ee4082648ecac203ddb4285611d","name":"Cattai National Park","WEBADDRESS":"http://www.environment.nsw.gov.au/NationalParks/parkHome.aspx","state":"New South Wales","category":"550-5510-0202"}
{"country":"AUS","ROUTING":{"latitude":-14.3211058,"longitude":132.4229093},"PHONE":"+61889738888","placeid":"036qvqnt-3d7dc082b5ce4d1b92c0a73ea1b137d8","EMAIL":"parks.desk@nt.gov.au","DISPLAY":{"latitude":-14.3211058,"longitude":132.4229093},"street":"Gorge Rd","district":"Nitmiluk","name":"Nitmiluk National Park","WEBADDRESS":"http://www.nt.gov.au/leisure/parks-reserves/find-a-park-to-visit/nitmiluk-national-park","state":"Northern Territory","category":"350-3550-0336","FAX":"(08) 8975 8701"}
{"country":"AUS","ROUTING":{"latitude":-21.17593,"longitude":149.18132},"city":"South Mackay","street":"Jack Connor Dr","PHONE":"+61749535999","district":"Mackay","placeid":"036rk4pd-50d233fce119498f80af91d4e6bbc763","name":"Mackay Airport","state":"Queensland","category":"400-4000-4581"}
{"country":"AUS","ROUTING":{"latitude":-32.7145,"longitude":138.10183},"street":"Alligator Gorge Rd","PHONE":"+61886347068","district":"Wilmington","placeid":"036r44jy-dc0ff9ad79f84765adfac63087ae9613","name":"Mount Remarkable National Park","state":"South Australia","category":"550-5510-0202"}
{"country":"AUS","ROUTING":{"latitude":-26.3995,"longitude":153.09452},"city":"Noosa Heads","street":"Sunshine Beach Rd","PHONE":"+61754473243","district":"Sunshine Coast","placeid":"036r7kcg-645abef02d33499a845c80c397ab8a20","name":"Noosa National Park","state":"Queensland","category":"550-5510-0204"}
{"country":"AUS","ROUTING":{"latitude":-18.10854,"longitude":125.68759},"street":"Geikie Gorge Rd","PHONE":"+61891921036","district":"King Leopold Ranges","placeid":"036quc2u-5b7aef14b7ae41b3a86ae7f8bc856121","name":"Geikie Gorge National Park","state":"Western Australia","category":"800-8100-0171"}
{"country":"AUS","ROUTING":{"latitude":-33.76703,"longitude":150.884},"city":"Doonside","PHONE":"+61296221644","placeid":"036r3grc-b7919ba1ad144455926f507da0a33d78","EMAIL":"info@featherdale.com.au","OTHER":"http://www.facebook.com/16574803798","DISPLAY":{"latitude":-33.76582,"longitude":150.88424},"street":"Kildare Rd","district":"Sydney","name":"Featherdale Wildlife Park","WEBADDRESS":"http://www.featherdale.com.au","state":"New South Wales","category":"300-3000-0000"}
{"country":"AUS","DISPLAY":{"latitude":-33.4292689,"longitude":151.276621},"ROUTING":{"latitude":-33.4292689,"longitude":151.276621},"city":"Somersby","street":"Girrakool Rd","PHONE":"+61243204200","district":"Central Coast","placeid":"036r659f-6c3deaa6d87746d99bdcc08f86a641ec","name":"Great North walk - Brisbane Water National Park","WEBADDRESS":"https://www.nationalparks.nsw.gov.au/things-to-do/walking-tracks/great-north-walk-brisbane-water-national-park","state":"New South Wales","category":"300-3000-0000"}
{"country":"AUS","DISPLAY":{"latitude":-33.97561,"longitude":151.04196},"ROUTING":{"latitude":-33.97554,"longitude":151.04203},"city":"Lugarno","street":"Murdock Cres","district":"Sydney","placeid":"036jx7ps-a2fe85b745af034b3cc6c1e7549762a2","name":"Georges River National Park","state":"New South Wales","category":"550-5510-0204"}
{"country":"AUS","ROUTING":{"latitude":-35.2990929,"longitude":149.0697682},"city":"Molonglo Valley","PHONE":"+61262878400","placeid":"036r3dp0-16476f13d91140579cbc5b409cceb809","EMAIL":"frontdesk@nationalzoo.com.au","OTHER":"https://www.twitter.com/national_zoo","DISPLAY":{"latitude":-35.2990929,"longitude":149.0697682},"district":"Molonglo Valley","name":"National Zoo & Aquarium","WEBADDRESS":"http://www.nationalzoo.com.au","state":"Australian Capital Territory","category":"300-3000-0000","FAX":"(02) 6287 8401"}
{"OTHER":"https://www.facebook.com/1676296605969836","country":"AUS","ROUTING":{"latitude":-33.83832,"longitude":151.24826},"city":"Mosman","street":"Morella Rd","PHONE":"+61292507777","district":"Sydney","placeid":"036r3gx3-8c3ef95fd4924311965386d92a7c5105","name":"Sydney Harbour National Park","state":"New South Wales","category":"550-5510-0202"}
{"country":"AUS","ROUTING":{"latitude":-37.83147,"longitude":144.89263},"city":"Spotswood","PHONE":"+61131102","placeid":"036r1r0c-4c029d1a5215475b9f24aa0dc37390e5","EMAIL":"mvbookings@museum.vic.gov.au","OTHER":"http://www.facebook.com/240273122715","DISPLAY":{"latitude":-37.8315,"longitude":144.89284},"street":"Booker St","district":"Melbourne","name":"Scienceworks","WEBADDRESS":"https://museumsvictoria.com.au/scienceworks","state":"Victoria","category":"300-3000-0000"}
{"country":"AUS","ROUTING":{"latitude":-35.3039,"longitude":149.13049},"city":"Parkes","PHONE":"+61262123600","placeid":"036r3dp1-b558ce193db5419cb71bd2e30808eeaa","EMAIL":"archives@naa.gov.au","OTHER":"http://www.facebook.com/40641767696","street":"Queen Victoria Ter","district":"Canberra","name":"National Archives of Australia","WEBADDRESS":"http://www.naa.gov.au/","state":"Australian Capital Territory","category":"300-3000-0000"}
{"country":"AUS","ROUTING":{"latitude":-37.6735511,"longitude":145.3828384},"PHONE":"+61397300100","placeid":"036r1r3s-35a7386960854bc6b1120b070c23f915","EMAIL":"info@yering.com","OTHER":"http://www.facebook.com/156287064598","DISPLAY":{"latitude":-37.6735511,"longitude":145.3828384},"district":"Yering","name":"Yering Station Wine Bar","WEBADDRESS":"https://www.yering.com/","state":"Victoria","category":"150-000","FAX":"(03) 9739 0135"}
{"OTHER":"http://www.facebook.com/356526141134678","country":"AUS","ROUTING":{"latitude":-31.93365,"longitude":115.95995},"city":"Perth Airport","street":"Brearley Ave","PHONE":"+61894788888","district":"Perth","placeid":"036jx7ps-97eb1583fd8f040776ba11d2f57d3cfc","name":"Perth Airport-Domestic","WEBADDRESS":"http://www.perthairport.com.au/","state":"Western Australia","category":"400-4100-0041"}
{"country":"AUS","ROUTING":{"latitude":-33.96193,"longitude":151.04359},"city":"Peakhurst","street":"Henry Lawson Dr","district":"Sydney","placeid":"036r3gqv-17cedb7962df4596965cf762b194f348","name":"Georges River National Park","state":"New South Wales","category":"550-5510-0204"}
{"OTHER":"http://www.facebook.com/123720187673230","country":"AUS","ROUTING":{"latitude":-35.2877,"longitude":149.1423},"city":"Reid","street":"Anzac Pde","PHONE":"+61262434211","district":"Canberra","placeid":"036r3dp3-c7335bc791bd4024956b6150f47aef32","name":"Desert Mounted Corps Memorial","WEBADDRESS":"http://www.nationalcapital.gov.au/index.php/attractions-managed-by-the-nca/anzac-parade","state":"Australian Capital Territory","category":"300-3000-0000"}
{"OTHER":"http://www.facebook.com/1127583337285571","country":"AUS","ROUTING":{"latitude":-42.89545,"longitude":147.23779},"street":"Pinnacle Rd","PHONE":"+61362382176","district":"Wellington Park","placeid":"036r22ey-471c1363e5514b9585181ba142ff153b","name":"Mount Wellington Lookout","WEBADDRESS":"http://www.wellingtonpark.org.au/","state":"Tasmania","category":"300-3000-0000","EMAIL":"wellington@hobartcity.com.au"}
{"country":"AUS","DISPLAY":{"latitude":-35.3078,"longitude":149.18985},"ROUTING":{"latitude":-35.30783,"longitude":149.18997},"city":"Canberra Airport","street":"Terminal Ave","PHONE":"+61262752222","district":"Canberra","placeid":"036r3dp4-9dd11f78333b4362a56aee05cfa36a52","name":"Canberra Airport","state":"Australian Capital Territory","category":"900-9300-0221"}
{"country":"AUS","ROUTING":{"latitude":-25.27381,"longitude":130.97381},"street":"Uluru Rd","PHONE":"+61889561100","district":"Petermann","placeid":"036qgt0h-953c008d6cd44d50b59902dc89483226","name":"Uluru Kata-Tjuta National Park","state":"Northern Territory","category":"550-5510-0202"}
{"country":"AUS","ROUTING":{"latitude":-20.66782,"longitude":139.49181},"city":"Kalkadoon","PHONE":"+61744093000","district":"Mount Isa","placeid":"036rh74q-1f8e94bc273b464392da4b350e1b0d56","name":"Mount Isa Airport","WEBADDRESS":"http://mountisaairport.com.au","state":"Queensland","category":"400-4000-4581","EMAIL":"info@isaairport.com.au"}
{"country":"AUS","ROUTING":{"latitude":-35.281145,"longitude":149.1483889},"city":"Campbell","PHONE":"+61262434211","placeid":"036r3dp3-b28e9fb32d884ba3875b39f1472d6c4b","EMAIL":"info@awm.gov.au","OTHER":"http://www.facebook.com/7244252524","DISPLAY":{"latitude":-35.281145,"longitude":149.1483889},"street":"Canberra Centenary Trail","district":"Canberra","name":"Australian War Memorial","WEBADDRESS":"http://www.awm.gov.au","state":"Australian Capital Territory","category":"300-3000-0000","FAX":"(02) 6243 4325"}
{"OTHER":"http://www.facebook.com/821052624705388","country":"AUS","ROUTING":{"latitude":-35.2889,"longitude":149.14124},"city":"Reid","street":"Anzac Pde","PHONE":"+61262434211","district":"Canberra","placeid":"036r3dp1-a51d61d16aa34efc870c730b2b3fcd6e","name":"New Zealand Memorial","WEBADDRESS":"http://monumentaustralia.org.au/display/90075-new-zealand-memorial","state":"Australian Capital Territory","category":"300-3000-0000"}
{"country":"AUS","ROUTING":{"latitude":-25.31984,"longitude":152.88536},"city":"Urangan","street":"Don Adams Dr","PHONE":"+61741948100","district":"Hervey Bay","placeid":"036r7kxy-419b1084f4534edf853ba4787b6bf458","name":"Hervey Bay Airport","WEBADDRESS":"http://www.frasercoastairport.com.au","state":"Queensland","category":"400-4000-4581","EMAIL":"info@frasercoastairport.com.au"}
{"country":"AUS","DISPLAY":{"latitude":-28.16703,"longitude":153.51363},"ROUTING":{"latitude":-28.16702,"longitude":153.51365},"city":"Bilinga","street":"Terminal Dr","PHONE":"+61755891100","district":"Gold Coast","placeid":"036jx7ps-d929641f9b8a0f6fa3e5a1e42f2ca80b","name":"Gold Coast Airport","WEBADDRESS":"http://goldcoastairport.com.au","state":"Queensland","category":"400-4000-4581"}
{"country":"AUS","ROUTING":{"latitude":-42.83752,"longitude":147.50543},"street":"Addison Dr","PHONE":"+61362161600","district":"Cambridge","placeid":"036r22uk-0e470c8f7624466ea134c3126ad7a0d6","name":"Hobart International Airport","WEBADDRESS":"https://hobartairport.com.au/","state":"Tasmania","category":"900-9300-0221"}
{"country":"AUS","ROUTING":{"latitude":-37.81419,"longitude":144.96323},"city":"Melbourne","PHONE":"+61396630066","placeid":"036r1r0f-89d8b09903e243b38549148aabd80e12","EMAIL":"melissa.chisnall@ap.jll.com","OTHER":"http://www.facebook.com/93863709932","street":"Bourke Street Mall","district":"Melbourne","name":"Melbourne's Gpo","WEBADDRESS":"http://www.melbournesgpo.com/","state":"Victoria","category":"300-3000-0000"}
{"OTHER":"http://www.facebook.com/325710444908684","country":"AUS","ROUTING":{"latitude":-37.5654,"longitude":143.88291},"city":"Eureka","street":"Rodier St","PHONE":"+61353330333","district":"Ballarat","placeid":"036r1q66-6e4d0e2bf24d416b921868098890ff11","name":"Eureka Centre","WEBADDRESS":"http://www.ballarat.vic.gov.au/lae/attractions/eureka-centre-home-of-the-eureka-flag.aspx","state":"Victoria","category":"100-1000-0001"}
{"country":"AUS","ROUTING":{"latitude":-42.8958,"longitude":147.29435},"city":"South Hobart","PHONE":"+61362218300","placeid":"036r22ez-30db70c17b24447db2152c232d509884","EMAIL":"CascadeTours@cub.com.au","OTHER":"https://www.facebook.com/108251922532314","DISPLAY":{"latitude":-42.8964,"longitude":147.29412},"street":"Cascade Rd","district":"Hobart","name":"Cascade Brewery","WEBADDRESS":"https://www.cascadebreweryco.com.au","state":"Tasmania","category":"800-074"}
{"country":"AUS","ROUTING":{"latitude":-29.54285,"longitude":152.24468},"street":"Gwydir Hwy","PHONE":"+61267325133","district":"Gibraltar Range","placeid":"036r6srb-e1fba4776da94b1b90ebe6551b06911c","name":"Gibraltar Range National Park","state":"New South Wales","category":"550-5510-0202"}
{"OTHER":"http://www.facebook.com/535476736599675","country":"AUS","ROUTING":{"latitude":-28.86431,"longitude":153.53126},"city":"West Ballina","street":"River St","PHONE":"+61266185600","district":"Ballina","placeid":"036r6v5v-c9d5c1e159f74baeb3591a6ff2654974","name":"The Big Prawn","state":"New South Wales","category":"300-3000-0000"}
{"OTHER":"http://www.facebook.com/185867674863","country":"AUS","ROUTING":{"latitude":-38.50133,"longitude":145.23169},"PHONE":"+61359522710","district":"Ventnor","placeid":"036t4x7z-0ab24c0aff6c06aa683cb5235b3a9db0","name":"Phillip Island Grand Prix Circuit","WEBADDRESS":"http://www.phillipislandcircuit.com.au/","state":"Victoria","category":"300-3000-0000","FAX":"(03) 5952 3160","EMAIL":"info@phillipislandcircuit.com.au"}
{"country":"AUS","ROUTING":{"latitude":-34.82287,"longitude":138.88936},"PHONE":"+61883891085","placeid":"036r1fcb-f9470d61152447a08883c3dbae009da1","EMAIL":"frans@thetoyfactory.com.au","OTHER":"http://www.facebook.com/178508522181148","DISPLAY":{"latitude":-34.8231,"longitude":138.88953},"street":"Ivan Dr","district":"Gumeracha","name":"The Big Rocking Horse And The Toy Factory","WEBADDRESS":"http://www.thetoyfactory.com.au","state":"South Australia","category":"300-3000-0000"}
{"OTHER":"http://www.facebook.com/126109417435406","country":"AUS","ROUTING":{"latitude":-35.28387,"longitude":149.14636},"city":"Campbell","street":"Anzac Pde","PHONE":"+61262434211","district":"Canberra","placeid":"036r3dp3-d5796599968748a2aa4c0484ec5e7666","name":"Royal Australian Navy Memorial","WEBADDRESS":"http://www.nationalcapital.gov.au/index.php?option=com_content&view=article&id=213&Itemid=202&limitstart=11","state":"Australian Capital Territory","category":"300-3000-0000"}
{"country":"AUS","ROUTING":{"latitude":-14.31706,"longitude":132.42159},"street":"Gorge Rd","district":"Nitmiluk","placeid":"036jx7ps-c1bd2f900c52017f20de73f5f863b5c2","name":"Katherine Gorge","state":"Northern Territory","category":"300-3000-0023"}
{"OTHER":"http://www.facebook.com/156828124338841","country":"AUS","ROUTING":{"latitude":-34.01217,"longitude":115.06464},"street":"Stevens Rd","PHONE":"+61897590000","district":"Witchcliffe","placeid":"036q9cyd-b622b020789249269833b48e987389ba","name":"Leeuwin Estate","WEBADDRESS":"http://leeuwinestate.com.au/","state":"Western Australia","category":"800-064"}
{"country":"AUS","ROUTING":{"latitude":-19.17902,"longitude":127.77776},"street":"Carranya-Wolf Creek Crater Rd","PHONE":"+61891684200","district":"Sturt Creek","placeid":"036qudfg-5e6fc7e18a524739aebaa749aab8ffc9","name":"Wolfe Creek Crater National Park","state":"Western Australia","category":"550-5510-0202"}
{"country":"AUS","ROUTING":{"latitude":-31.95762,"longitude":115.84411},"city":"Kings Park","street":"Fraser Ave","PHONE":"+61894803600","district":"Perth","placeid":"036qd66h-5ef26f4f15d34bc4afd55c50025a1f35","name":"Kings Park","WEBADDRESS":"https://www.bgpa.wa.gov.au/kings-park","state":"Western Australia","category":"900-9100-0215","EMAIL":"enquiries@bgpa.wa.gov.au"}
{"OTHER":"http://www.facebook.com/1518100658499622","country":"AUS","DISPLAY":{"latitude":-32.38097,"longitude":152.35057},"ROUTING":{"latitude":-32.38004,"longitude":152.35122},"street":"The Lakes Way","PHONE":"+61265910300","district":"Mayers Flat","placeid":"036r6hrf-3833aec569bd44a38e93fa7e43694a45","name":"Myall Lakes National Park-Sugarloaf Point","state":"New South Wales","category":"550-5510-0202"}
{"country":"AUS","DISPLAY":{"latitude":-34.0091249,"longitude":151.2275526},"ROUTING":{"latitude":-34.0091249,"longitude":151.2275526},"city":"Kurnell","street":"Cape Solander Dr","PHONE":"+61296689111","district":"Sydney","placeid":"036aabd1-cf87b0e1e9fe0acaad98f739182b5a2d","name":"Kamay Botany Bay National Park","WEBADDRESS":"http://www.nationalparks.nsw.gov.au/visit-a-park/parks/kamay-botany-bay-national-park","state":"New South Wales","category":"300-3000-0000"}
{"country":"AUS","ROUTING":{"latitude":-34.01711,"longitude":115.05139},"street":"Stevens Rd","PHONE":"+61897576354","district":"Witchcliffe","placeid":"036q9cyd-110deda418f0491cad69460406c46865","name":"Voyager Estate","state":"Western Australia","category":"300-3000-0065"}
{"country":"AUS","DISPLAY":{"latitude":-33.679734,"longitude":150.9089596},"ROUTING":{"latitude":-33.679734,"longitude":150.9089596},"city":"Rouse Hill","PHONE":"+61245723100","district":"Sydney","placeid":"036r6526-25f73321e9764027af7a93a9635dc74e","name":"Rouse Hill Regional Park","WEBADDRESS":"http://www.nationalparks.nsw.gov.au/rouse-hill-regional-park","state":"New South Wales","category":"300-3000-0000"}
{"country":"AUS","ROUTING":{"latitude":-28.13547,"longitude":153.48821},"city":"Currumbin","PHONE":"+61755341266","placeid":"036r6vpu-3b68128f548447548d81f106a2bc8659","TOLLFREE":"1300886511","EMAIL":"moreaustralian@cws.org.au","OTHER":"http://www.facebook.com/20442039585","DISPLAY":{"latitude":-28.13614,"longitude":153.48865},"street":"Tomewin St","district":"Gold Coast","name":"TreeTop Challenge Currumbin Wildlife Sanctuary","WEBADDRESS":"https://currumbinsanctuary.com.au/","state":"Queensland","category":"300-3000-0000","FAX":"(07) 5534 7427"}
{"country":"AUS","ROUTING":{"latitude":-41.7718,"longitude":146.22522},"street":"Mersey Forest Rd","PHONE":"+61363635133","district":"Mersey Forest","placeid":"036r0xfr-1f8c97ca7bf846258f898b6cf5588d6a","name":"Walls of Jerusalem National Park","state":"Tasmania","category":"300-3000-0000"}
{"country":"AUS","ROUTING":{"latitude":-33.29574,"longitude":151.54298},"city":"Magenta","street":"Wilfred Barrett Dr","PHONE":"+611300130708","district":"Central Coast","placeid":"036r65f8-ca4cc2835d66483e91988d9492d4e441","name":"Wyrrabalong National Park","WEBADDRESS":"http://www.nationalparks.nsw.gov.au/visit-a-park/parks/Wyrrabalong-National-Park","state":"New South Wales","category":"300-3000-0000"}
{"country":"AUS","ROUTING":{"latitude":-33.7921739,"longitude":151.1524341},"city":"North Ryde","PHONE":"+61294121811","placeid":"036r3grz-aa08778ad1e44733b8797612a10ad38a","EMAIL":"lccp@environment.nsw.gov.au","OTHER":"http://www.facebook.com/1698753997039925","DISPLAY":{"latitude":-33.7921739,"longitude":151.1524341},"street":"Riverside Dr","district":"Sydney","name":"Lane Cove National Park","WEBADDRESS":"http://www.nationalparks.nsw.gov.au/lane-cove-national-park","state":"New South Wales","category":"300-3000-0000","FAX":"(02) 8448 0444"}
{"country":"AUS","ROUTING":{"latitude":-34.00548,"longitude":151.22171},"city":"Kurnell","district":"Sydney","placeid":"036r3gw9-803a4f19e0c64dc5ac1be86811f70e50","name":"Kurnell Peninsular Headland","state":"New South Wales","category":"550-5510-0202"}
{"country":"AUS","ROUTING":{"latitude":-33.9842,"longitude":150.99291},"city":"Menai","street":"St George Cres","district":"Sydney","placeid":"036jx7ps-f7fb9facbfcf0950059f8278ecf70ea4","name":"Georges River National Park","state":"New South Wales","category":"550-5510-0204"}
{"OTHER":"http://www.facebook.com/552763518224836","country":"AUS","ROUTING":{"latitude":-31.42924,"longitude":152.19757},"street":"Oxley Hwy","PHONE":"+61265885555","district":"Mount Seaview","placeid":"036r6kjp-75e8213bba624c94a7ebad39fae20b94","name":"Cottan-Bimbang National Park","state":"New South Wales","category":"550-5510-0202"}
{"country":"AUS","ROUTING":{"latitude":-30.30234,"longitude":153.14163},"city":"Coffs Harbour","district":"Coffs Harbour","placeid":"036r6sgs-c908a5f0f3e2448d86cdd64587a9ca46","name":"Yarriabini National Park","state":"New South Wales","category":"550-5510-0202"}
{"country":"AUS","ROUTING":{"latitude":-42.88379,"longitude":147.33273},"city":"Hobart","street":"Elizabeth Street Pier","district":"Hobart","placeid":"036r22u0-9bdab9f2c13049cdbcbff7f326e80576","name":"Constitution Dock","state":"Tasmania","category":"300-3000-0023"}
{"OTHER":"http://www.facebook.com/160603130632181","country":"AUS","ROUTING":{"latitude":-37.68196,"longitude":145.5312},"PHONE":"+61359572800","district":"Badger Creek","placeid":"036r1r3x-d26fb441640342b7996a3920b44f03cc","name":"Healesville Sanctuary","WEBADDRESS":"http://www.zoo.org.au","state":"Victoria","category":"300-3000-0000","EMAIL":"hsreception@zoo.org.au"}
{"country":"AUS","ROUTING":{"latitude":-26.60518,"longitude":153.08829},"city":"Marcoola","PHONE":"+61754531500","placeid":"036r7kbe-519f6eb4be6645e2ae7dcb7558f1d92a","TOLLFREE":"1300-993543","EMAIL":"airport@sunshinecoast.qld.gov.au","street":"Friendship Ave","district":"Sunshine Coast","name":"Sunshine Coast Airport","WEBADDRESS":"http://sunshinecoastairport.com.au","state":"Queensland","category":"400-4000-4581"}
{"country":"AUS","ROUTING":{"latitude":-34.65263,"longitude":135.35572},"street":"Coffin Rd","PHONE":"+61886883111","district":"Coffin Bay","placeid":"036r1b6f-cdd1d7ee8d4e44b78aec3960e47f60f3","name":"Coffin Bay National Park","state":"South Australia","category":"550-5510-0202"}
{"country":"AUS","ROUTING":{"latitude":-37.49595,"longitude":145.87711},"street":"Lake Mountain Rd","district":"Marysville","placeid":"036r1rdx-de54ad5542524195b63bad4403752e49","name":"Lake Mountain","state":"Victoria","category":"900-9100-0215"}
{"country":"AUS","ROUTING":{"latitude":-25.30063,"longitude":130.71551},"street":"Kata Tjuta Rd","district":"Petermann","placeid":"036qgsbn-74facb1897bb4154a49127e51022bd21","name":"Kata-Tjuta","state":"Northern Territory","category":"300-3000-0000"}
{"country":"AUS","ROUTING":{"latitude":-35.2827,"longitude":149.14738},"city":"Campbell","street":"Anzac Pde","district":"Canberra","placeid":"036r3dp3-e38ffedd1f7749ee9afdd3caf8373ba8","name":"Kemal Ataturk Memorial","state":"Australian Capital Territory","category":"300-3000-0025"}
{"country":"AUS","ROUTING":{"latitude":-33.83861,"longitude":151.20536},"city":"North Sydney","PHONE":"+61289124878","placeid":"036r3gx2-a0cb0aa9e6fc4a9bb8c22e81c6309818","EMAIL":"museum@mmp.org.au","OTHER":"https://www.facebook.com/MaryMacKillopPlace","DISPLAY":{"latitude":-33.83894,"longitude":151.20529},"street":"Mount St","district":"Sydney","name":"Mary MacKillop Place Museum","WEBADDRESS":"http://www.marymackillopplace.org.au","state":"New South Wales","category":"300-3000-0000"}
{"country":"AUS","ROUTING":{"latitude":-32.90894,"longitude":150.74847},"street":"Putty Rd","district":"Garland Valley","placeid":"036r65hy-860402d04e764f8e8ba67362b4a9caca","name":"Yengo National Park","state":"New South Wales","category":"550-5510-0204"}
{"country":"AUS","ROUTING":{"latitude":-38.02635,"longitude":144.47344},"street":"Airport Dr","PHONE":"+61352279100","district":"Avalon","placeid":"036r1nxx-69ccc5698aa04080bbae371bb7accc1a","name":"Avalon Airport","state":"Victoria","category":"400-4000-4581"}
{"country":"AUS","ROUTING":{"latitude":-35.17051,"longitude":138.51497},"city":"Onkaparinga Hills","street":"Piggott Range Rd","PHONE":"+61882785477","district":"Adelaide","placeid":"036r1drz-7b16682ce9944bef9cbff71fa7145de4","name":"Onkaparinga River National Park","state":"South Australia","category":"550-5510-0202"}
{"country":"AUS","ROUTING":{"latitude":-37.8311044,"longitude":144.976693},"city":"Melbourne","PHONE":"+61396618100","placeid":"036r1r0f-dc707bf3d12a48d0a9890a0536404e4b","EMAIL":"reception@shrine.org.au","DISPLAY":{"latitude":-37.8311044,"longitude":144.976693},"street":"Birdwood Ave","district":"Melbourne","name":"Shrine of Remembrance","WEBADDRESS":"http://www.shrine.org.au","state":"Victoria","category":"300-3000-0000"}
{"OTHER":"http://www.facebook.com/1532084983784484","country":"AUS","DISPLAY":{"latitude":-33.8267003,"longitude":151.2665296},"ROUTING":{"latitude":-33.8267003,"longitude":151.2665296},"city":"Mosman","PHONE":"+61293375511","district":"Sydney","placeid":"036r3gxd-c6e7baec1b464cb1a019f861d37fb8b7","name":"Middle Head","WEBADDRESS":"http://www.nationalparks.nsw.gov.au/sydney-harbour-national-park/middle-head/lookout","state":"New South Wales","category":"300-3000-0000"}
{"country":"AUS","ROUTING":{"latitude":-12.40802,"longitude":130.8788},"city":"Eaton","street":"Henry Wrigley Dr","PHONE":"+61889201811","district":"Darwin","placeid":"036qvv16-96f50f53468141f4912be195af2809e5","name":"Darwin International Airport","WEBADDRESS":"https://www.darwinairport.com.au/","state":"Northern Territory","category":"900-9300-0221"}
{"country":"AUS","ROUTING":{"latitude":-34.03948,"longitude":151.21163},"city":"Kurnell","district":"Sydney","placeid":"036r3gw2-4c12c7fe32124cbe8342059d51e39140","name":"Captain Cooks Landing Place","state":"New South Wales","category":"300-3000-0023"}
{"country":"AUS","ROUTING":{"latitude":-33.95964,"longitude":151.25173},"city":"Malabar","street":"Franklin St","PHONE":"+61293375511","district":"Sydney","placeid":"036jx7ps-89481077c3a60c2c8ff8ce77cdbd64f2","name":"Malabar Headland National Park","WEBADDRESS":"http://www.environment.nsw.gov.au/NationalParks/parkHome.aspx","state":"New South Wales","category":"550-5510-0202"}
{"country":"AUS","ROUTING":{"latitude":-32.87101,"longitude":151.68231},"street":"Pipeline Rd","district":"Hexham","placeid":"036jx7ps-92865e524cbb076a2ebd32cd61f9d998","name":"Hunter Wetlands National Park","state":"New South Wales","category":"550-5510-0202"}
{"OTHER":"https://www.twitter.com/greatoceanroad","country":"AUS","ROUTING":{"latitude":-38.47209,"longitude":144.04412},"street":"Great Ocean Rd","district":"Eastern View","placeid":"036r1nmj-d1db210f6ecc4bc49645c4594f2d2331","name":"Great Ocean Rd Memorial Arch","state":"Victoria","category":"550-5510-0204"}
{"country":"AUS","ROUTING":{"latitude":-34.06572,"longitude":150.76703},"city":"Mount Annan","PHONE":"+61246482477","district":"Sydney","placeid":"036r3gnn-151676e49a4a4553a25e502873f5480f","name":"Mt Annan Botanical Gardens","state":"New South Wales","category":"350-3550-0336"}
{"country":"AUS","ROUTING":{"latitude":-30.99894,"longitude":153.02643},"street":"Hat Head Rd","PHONE":"+61265666168","district":"Kinchela","placeid":"036r6kzd-1f03adcfc15e4b54acc6b9fb06c93868","name":"Hat Head National Park","WEBADDRESS":"http://www.nationalparks.nsw.gov.au/visit-a-park/parks/hat-head-national-park","state":"New South Wales","category":"300-3000-0000"}
{"country":"AUS","ROUTING":{"latitude":-27.32774,"longitude":152.76082},"city":"Mount Glorious","street":"Browns Rd","district":"Brisbane","placeid":"036r7hss-d08750e3f3fc4a00ad0e6e26b766c492","name":"D'Aguilar National Park","state":"Queensland","category":"550-5510-0202"}
{"country":"AUS","DISPLAY":{"latitude":-34.17725,"longitude":150.99581},"ROUTING":{"latitude":-34.17727,"longitude":150.99521},