{"DISPLAY":{"latitude":22.5724124,"longitude":71.8085194},"ROUTING":{"latitude":22.5724124,"longitude":71.8085194},"town":"Limbdi","city":"Limbdi","district":"Surendranagar","placeid":"356xjxn4-a3674d781f3200b01a7388b85dc4982c","name":"Raghuvamshi Cloth","state":"Gujarat","category":"600-6800-0000"}
{"DISPLAY":{"latitude":18.7810512,"longitude":73.2862244},"ROUTING":{"latitude":18.78105,"longitude":73.28622},"city":"Khalapur","street":"SH-92","district":"Raigarh","placeid":"356jx7ps-af69f44024ee0147667ea9b08bb3f963","name":"Devnhave","state":"Maharashtra","category":"900-9100-0214"}
{"DISPLAY":{"latitude":23.2702855,"longitude":77.3965513},"ROUTING":{"latitude":23.2702855,"longitude":77.3965513},"town":"Shahjahanabad","city":"Bhopal","district":"Bhopal","placeid":"356tsph3-d7b4f4367eb4466faa8107fb9e6db6c6","name":"Fish Stores","state":"Madhya Pradesh","category":"600-6300-0244"}
{"DISPLAY":{"latitude":21.13068,"longitude":79.11983},"ROUTING":{"latitude":21.13062,"longitude":79.11982},"town":"New Nandanvan","city":"Nagpur","street":"Gurudev Nagar Main Road","district":"Nagpur","placeid":"356tgb20-5cc70d573abe41f9839ad9cde8bc1a8e","name":"Pratik Computer","state":"Maharashtra","category":"600-6500-0075"}
{"DISPLAY":{"latitude":17.011407,"longitude":81.1924454},"ROUTING":{"latitude":17.011407,"longitude":81.1924454},"city":"Kamavarapukota","district":"West Godavari","placeid":"356tg18z-922715fa06d24ce29d6b9ae3dde53410","name":"Sadhu Kirana Stores","state":"Andhra Pradesh","category":"600-6300-0066"}
{"DISPLAY":{"latitude":28.89574,"longitude":78.46742},"ROUTING":{"latitude":28.89574,"longitude":78.46742},"town":"Makanpur Syad Kasba","city":"Amroha","district":"Jyotiba Phule Nagar","placeid":"356xjxn4-45a7ef3686740caaa9186269303eb4e6","name":"New Vikrant Mobile Solution","state":"Uttar Pradesh","category":"600-6500-0072"}
{"DISPLAY":{"latitude":26.92163,"longitude":75.82167},"ROUTING":{"latitude":26.92155,"longitude":75.82205},"town":"Pink City","city":"Jaipur","PHONE":"+911412310875","district":"Jaipur","placeid":"356tsvcj-41f75f0a3c7b49c996ed07e1e72b1974","name":"National Institute","state":"Rajasthan","category":"700-7200-0271"}
{"DISPLAY":{"latitude":24.263801,"longitude":72.1800582},"ROUTING":{"latitude":24.263801,"longitude":72.1800582},"town":"Deesa","city":"Deesa","district":"Banaskantha","placeid":"3561r4ve-f6541243eec50d074be23036ced84d12","name":"Shri Chamunda Telecom","state":"Gujarat","category":"700-7100-0134"}
{"ROUTING":{"latitude":14.23623,"longitude":75.65058},"town":"Honnali","city":"Honnali","street":"SH-48","district":"Davanagere","placeid":"356jx7ps-3f30808a6ce20f852aad42da5c627303","name":"Super Bike Service","state":"Karnataka","category":"700-7400-0146"}
{"DISPLAY":{"latitude":22.7411969,"longitude":88.3520012},"ROUTING":{"latitude":22.7411969,"longitude":88.3520012},"town":"Serampore","city":"Serampur Uttarpara","district":"Hooghly","placeid":"356tunc6-cbf70a328958496f951bb25df237931d","name":"P.K. Sadhu Khan","state":"West Bengal","category":"700-7250-0136","MOBILE":"+919339235226"}
{"DISPLAY":{"latitude":13.02952,"longitude":77.57086},"ROUTING":{"latitude":13.02952,"longitude":77.57087},"town":"Devasandra","city":"Bengaluru","district":"Bengaluru","placeid":"356tdr4h-2409cafbc21c4278a2a9cc9f90259fb4","name":"Xdrax X8","state":"Karnataka","category":"600-6800-0000"}
{"DISPLAY":{"latitude":28.6498,"longitude":77.22595},"ROUTING":{"latitude":28.64964,"longitude":77.22585},"town":"Hauz Qazi","city":"New Delhi","district":"Central","placeid":"356ttnfv-a9570f5e71b4451cafae39f18a7bd30d","name":"Neta valves pvt. Ltd.","state":"Delhi","category":"600-6600-0077"}
{"DISPLAY":{"latitude":18.4350419,"longitude":78.9411096},"ROUTING":{"latitude":18.4350419,"longitude":78.9411096},"town":"Kodurpaka","city":"Boinpalli","district":"Rajanna Sircilla","placeid":"356tg20u-068f6c9cfc314229b0d37fb108f14f0f","name":"Mahender Tailors","state":"Telangana","category":"700-7400-0149"}
{"DISPLAY":{"latitude":19.9768423,"longitude":76.7863805},"ROUTING":{"latitude":19.9768423,"longitude":76.7863805},"town":"Risod","city":"Risod","district":"Washim","placeid":"3561r4ve-4f5e3df787150a202c685b6135c66af1","name":"Vipin Printing Press","state":"Maharashtra","category":"700-7400-0151"}
{"ROUTING":{"latitude":19.35452,"longitude":74.88083},"city":"Nevasa","street":"SH-60","district":"Ahmednagar","placeid":"356jx7ps-ba08087d0d9009a138984f3a81eb379b","name":"Hotel Sarang","state":"Maharashtra","category":"600-6300-0064"}
{"ROUTING":{"latitude":28.59291,"longitude":76.28231},"town":"Charkhi Dadri","city":"Charkhi Dadri","district":"Bhiwani","placeid":"356jx7ps-31faead24fd00207e6fd75bcfdd36b7b","name":"Girdhari Auto Work","state":"Haryana","category":"700-7850-0000"}
{"ROUTING":{"latitude":22.66726,"longitude":88.43391},"town":"Birati","city":"Kolkata","street":"Nilachal Road","district":"North Twenty Four Parganas","placeid":"356jx7ps-efeac84358710c5a19ac62cff713c50e","name":"Nataraj Mistanna Bhandar","state":"West Bengal","category":"900-9300-0221"}
{"DISPLAY":{"latitude":28.65543,"longitude":77.23348},"ROUTING":{"latitude":28.65542,"longitude":77.23353},"town":"Chandni Chowk","city":"New Delhi","PHONE":"+911123276314","district":"Central","placeid":"356xjxn4-de4c0015208204158027d9f6c6ce5566","name":"Gyan Chand Jain & Sons","state":"Delhi","category":"700-7250-0136"}
{"OTHER":"http://www.facebook.com/1044810162200679","DISPLAY":{"latitude":22.5126601,"longitude":88.4074489},"ROUTING":{"latitude":22.5126601,"longitude":88.4074489},"town":"East Kolkata Township","city":"Kolkata","PHONE":"+919836693353","district":"South Twenty Four Parganas","placeid":"356tunb5-d7ea06d4d160407085a79b59f3235e33","name":"Mother's Delight","state":"West Bengal","category":"600-6300-0244"}
{"DISPLAY":{"latitude":19.9916986,"longitude":73.7444014},"ROUTING":{"latitude":19.9916986,"longitude":73.7444014},"town":"Satpur","city":"Nashik","PHONE":"+912536616333","district":"Nashik","placeid":"356t4x7z-04598e7a133b0b5d2035ff50dbdfd017","name":"Ginger Nashik","WEBADDRESS":"http://www.gingerhotels.com/nashik-hotels/budget-hotels-in-nashik","state":"Maharashtra","category":"500-5000-0000"}
{"DISPLAY":{"latitude":28.60768,"longitude":76.65431},"ROUTING":{"latitude":28.60768,"longitude":76.65431},"town":"Jhajjar","city":"Jhajjar","district":"Jhajjar","placeid":"3561r4ve-6c28bc28b2c90e1a9638684c98a17524","name":"Sanjay Electronic Store","state":"Haryana","category":"600-6900-0105"}
{"ROUTING":{"latitude":11.19246,"longitude":77.26214},"town":"Avanashi","city":"Avanashi","street":"SH-80","district":"Tiruppur","placeid":"356t9yzw-08fd8d2a8f444ef582173d3e62ea6c65","name":"Prithivi Steels","state":"Tamil Nadu","category":"600-6600-0077","MOBILE":"+919750670007"}
{"DISPLAY":{"latitude":22.99369,"longitude":72.66258},"ROUTING":{"latitude":22.99367,"longitude":72.66269},"town":"Vastral","city":"Ahmedabad","street":"Shivanand Bunglows Road","district":"Ahmedabad","placeid":"356ts5dv-9f7689e1f97d4679a8e72618d8b2a922","name":"Jay ambhe auto service cenetr","state":"Gujarat","category":"700-7200-0275"}
{"DISPLAY":{"latitude":26.89084,"longitude":75.77519},"ROUTING":{"latitude":26.8908,"longitude":75.7753},"town":"Sodala","city":"Jaipur","district":"Jaipur","placeid":"356tsvbu-b1d38353a99142d38c0324c9bbb66a8b","name":"Pashudhan Sahayak Parshikshan","state":"Rajasthan","category":"700-7250-0136"}
{"DISPLAY":{"latitude":22.58892,"longitude":88.33296},"ROUTING":{"latitude":22.58889,"longitude":88.33301},"town":"Kadam Tala","city":"Howrah","street":"Bashiruddin Munshi Lane","district":"Haora","placeid":"356tunbd-9ab6e0f3939943bba1c12443fdd288fb","name":"Stich Art Tailor","state":"West Bengal","category":"700-7400-0149"}
{"DISPLAY":{"latitude":24.99544,"longitude":88.14208},"ROUTING":{"latitude":24.9954,"longitude":88.14208},"town":"English Bazar","city":"English Bazar","street":"K J Sanyal Road","district":"Maldah","placeid":"356jx7ps-384b517000af0ae5a71a2beeb48277d0","name":"Bina Pharmacy","state":"West Bengal","category":"600-6400-0069"}
{"OTHER":"http://www.facebook.com/266697534080857","DISPLAY":{"latitude":22.6278568,"longitude":88.4637493},"ROUTING":{"latitude":22.6278568,"longitude":88.4637493},"town":"New Town Action Area Ii","city":"Kolkata","PHONE":"+919830545497","district":"North Twenty Four Parganas","placeid":"356tunbt-b8a7e6dc6f384d948139019225c8c1c4","name":"Kurkum","state":"West Bengal","category":"800-8600-0000"}
{"OTHER":"http://www.facebook.com/140068726701900","DISPLAY":{"latitude":22.3334218,"longitude":73.1564604},"ROUTING":{"latitude":22.3334218,"longitude":73.1564604},"town":"Gorwa","city":"Vadodara","district":"Vadodara","placeid":"356teup0-4d1752ad18bc428987120083cf5969d5","name":"St Marys School","state":"Gujarat","category":"800-8200-0174"}
{"DISPLAY":{"latitude":21.1962852,"longitude":81.3067255},"ROUTING":{"latitude":21.1962852,"longitude":81.3067255},"town":"Sindhya Nagar","city":"Durg","PHONE":"+917712225857","district":"Durg","placeid":"356tgcbd-461e2752f23e41bda584748e2dda546e","name":"Bajaj Marketing","state":"Chhattisgarh","category":"600-6900-0356"}
{"ROUTING":{"latitude":30.88996,"longitude":76.82974},"city":"Kalka Sub-District","district":"Panchkula","placeid":"356jx7ps-67fdfbb5ad5308161d7f16268304f8ba","name":"MR Scrap Traders","state":"Haryana","category":"700-7250-0136","MOBILE":"+919816358050"}
{"DISPLAY":{"latitude":27.2085372,"longitude":77.9807845},"ROUTING":{"latitude":27.2085372,"longitude":77.9807845},"town":"Transport Nagar","city":"Agra","district":"Agra","placeid":"356tsz6y-c717c55f3dff48c288d861e3e019756a","name":"Yadav Company","state":"Uttar Pradesh","category":"700-7250-0136","MOBILE":"+919557601327"}
{"DISPLAY":{"latitude":22.28716,"longitude":70.78021},"ROUTING":{"latitude":22.28713,"longitude":70.78024},"town":"Rajkot H. O.","city":"Rajkot","district":"Rajkot","placeid":"3561r4ve-132fb0c831c70730a7847889dd197df5","name":"Shreenathji Paints & Hardware","state":"Gujarat","category":"600-6600-0077"}
{"DISPLAY":{"latitude":19.16666,"longitude":72.84734},"ROUTING":{"latitude":19.16658,"longitude":72.84736},"town":"Goregaon West","city":"Mumbai","street":"Aarey Road","district":"Mumbai Suburban","placeid":"356te7v1-20813da12277486bbe1fb08ea619ea45","name":"Bhavesh Stores","state":"Maharashtra","category":"700-7400-0148"}
{"DISPLAY":{"latitude":15.13602,"longitude":76.93131},"ROUTING":{"latitude":15.13601,"longitude":76.93133},"town":"Brucepet","city":"Ballari","district":"Ballari","placeid":"356tdwwn-fe1a86fe35c54f159777a2631ad6121d","name":"Nandini Milk Product","state":"Karnataka","category":"600-6300-0364"}
{"DISPLAY":{"latitude":21.7848175,"longitude":87.7494001},"ROUTING":{"latitude":21.7848175,"longitude":87.7494001},"town":"Contai","city":"Contai-Iii","district":"Purba Medinipur","placeid":"356xjxn4-e2595a9b8808082d891fa3b67f7575d1","name":"Bubumani Store","state":"West Bengal","category":"600-6000-0061"}
{"DISPLAY":{"latitude":28.70693,"longitude":77.17141},"ROUTING":{"latitude":28.70688,"longitude":77.17144},"town":"Shalimar Bagh","city":"New Delhi","PHONE":"+911127487166","district":"North West","placeid":"356ttngk-29f33a641a3f4361ba6077de564df492","name":"Nanak Store","state":"Delhi","category":"600-6300-0066"}
{"OTHER":"http://www.facebook.com/636118076530213","DISPLAY":{"latitude":18.5994875,"longitude":73.7749513},"ROUTING":{"latitude":18.5994875,"longitude":73.7749513},"town":"Wakad","city":"Chinchwad","PHONE":"+918446583459","district":"Pune","placeid":"356tek3y-dccc0ac08b0f468a9cc6b3574aeaca67","name":"MS Acrylic and Kundan Rangoli Works","state":"Maharashtra","category":"300-3000-0024"}
{"OTHER":"http://www.facebook.com/465146973945661","DISPLAY":{"latitude":23.07575,"longitude":72.55603},"ROUTING":{"latitude":23.07575,"longitude":72.55603},"town":"Ghatlodia","city":"Ahmedabad","PHONE":"+919601865455","district":"Ahmedabad","placeid":"356ts5e7-4e8458478a8a447db7dd8d7ae5038c1f","name":"Miracle Art Studio and Classes","WEBADDRESS":"http://www.instagram.com/miracle_art_studio","state":"Gujarat","category":"800-8200-0000"}
{"DISPLAY":{"latitude":26.74941,"longitude":83.36028},"ROUTING":{"latitude":26.74941,"longitude":83.36028},"town":"Bade Kajipur","city":"Gorakhpur","street":"Jubilee Cinema Road","district":"Gorakhpur","placeid":"356jx7ps-8262f6f1fb950edc187dc22201a6b55b","name":"G M Complex","state":"Uttar Pradesh","category":"600-6100-0062"}
{"ROUTING":{"latitude":27.76091,"longitude":77.02887},"city":"Ferozepur Jhirka","street":"SH-22","district":"Mewat","placeid":"356jx7ps-52bc440f005c0978d6b2279eb208d137","name":"Pagal Baba Hospital-ER","state":"Haryana","category":"800-8000-0325"}
{"DISPLAY":{"latitude":19.06812,"longitude":72.87618},"ROUTING":{"latitude":19.06812,"longitude":72.87612},"town":"Kurla West","city":"Mumbai","PHONE":"+912224360053","district":"Mumbai Suburban","placeid":"356te7u6-dd5a6e7031794423b67b0cdfac28bc2b","name":"Baby Land Nursery School","state":"Maharashtra","category":"800-8100-0000"}
{"DISPLAY":{"latitude":16.6954,"longitude":74.22216},"ROUTING":{"latitude":16.69539,"longitude":74.22216},"town":"Shivaji Peth","city":"Kolhapur","district":"Kolhapur","placeid":"3561r4ve-626ad201bbca0096b1832848ec048279","name":"Vaishnavi Creation","state":"Maharashtra","category":"700-7400-0141"}
{"ROUTING":{"latitude":18.51978,"longitude":73.85619},"town":"Kasba Peth","city":"Pune","street":"Shivaji Road","district":"Pune","placeid":"356jx7ps-03517f2513810bce697cca25dde4a799","name":"Dhanashree Vyavasay Margdarshan Kendra","state":"Maharashtra","category":"700-7250-0136"}
{"DISPLAY":{"latitude":29.93068,"longitude":73.87342},"ROUTING":{"latitude":29.93069,"longitude":73.87333},"town":"Purani Dhan Mandi","city":"Sriganganagar","street":"Swami Dayanand Marg","district":"Sriganganagar","placeid":"356ttkd3-b74433eb3119497ba593c448f65ed46b","name":"Bajaj Gota Store","state":"Rajasthan","category":"600-6900-0096"}
{"ROUTING":{"latitude":28.65484,"longitude":77.27584},"town":"Geeta Colony","city":"New Delhi","district":"East","placeid":"356jx7ps-58240062ec3c011b5a75def6e1033fde","name":"smart Shoe Point","state":"Delhi","category":"600-6800-0092","MOBILE":"+919873752115"}
{"DISPLAY":{"latitude":13.0098234,"longitude":76.0980727},"ROUTING":{"latitude":13.0098234,"longitude":76.0980727},"town":"Penshan Mohalla","city":"Hassan","district":"Hassan","placeid":"356tdq45-aeb3c964e90f4f05a775f46ed1877ba2","name":"Sri Bhairaveshwar Mess","state":"Karnataka","category":"202-000"}
{"DISPLAY":{"latitude":17.7118785,"longitude":83.2997132},"ROUTING":{"latitude":17.7118785,"longitude":83.2997132},"town":"Suryabagh","city":"Visakhapatnam","district":"Visakhapatnam","placeid":"356tg5hz-6bed4f7a5b1244dcad28e2f29d2acf57","name":"Ome Industrial Corporation","state":"Andhra Pradesh","category":"700-7250-0136"}
{"DISPLAY":{"latitude":21.09578,"longitude":79.09878},"ROUTING":{"latitude":21.09576,"longitude":79.09877},"town":"Manewada","city":"Nagpur","district":"Nagpur","placeid":"356tgb0p-5c526acc9feb4c3a81134fba797e19dc","name":"Arpit Gift","state":"Maharashtra","category":"600-6900-0103"}
{"ROUTING":{"latitude":28.57947,"longitude":77.17014},"town":"Moti Bagh","city":"New Delhi","street":"Baba Balaknath Mandir Road","PHONE":"+911124121254","district":"South West","placeid":"356jx7ps-c66b0382543803ec01bcfcb4883dd929","name":"Nanak Pura Dental Clinic","state":"Delhi","category":"800-8000-0154","MOBILE":"+919810273502"}
{"DISPLAY":{"latitude":28.56704,"longitude":77.32161},"ROUTING":{"latitude":28.56835,"longitude":77.32169},"town":"Sector 18","city":"Noida","district":"Gautam Buddha Nagar","placeid":"356jx7ps-8bd92b1aac5505af597e5bfa48c02087","name":"Aurelia","state":"Uttar Pradesh","category":"600-6800-0000"}
{"DISPLAY":{"latitude":22.5402004,"longitude":72.92749},"ROUTING":{"latitude":22.5402004,"longitude":72.92749},"town":"Anand","city":"Vallabh Vidhyanagar","district":"Anand","placeid":"3561r4ve-d4d8ae4267580daa7876f69f6ef407c6","name":"Sidarth Steele Work","state":"Gujarat","category":"700-7400-0146"}
{"DISPLAY":{"latitude":26.46761,"longitude":80.35058},"ROUTING":{"latitude":26.46768,"longitude":80.35065},"town":"Colonel Ganj","city":"Kanpur","district":"Kanpur Nagar","placeid":"356tu9ns-0bb75452a6614d3e801f66d9bdcd1b12","name":"Ragini Beauty Parlour","state":"Uttar Pradesh","category":"600-6900-0096","MOBILE":"+919451021604"}
{"DISPLAY":{"latitude":15.94489,"longitude":75.76107},"ROUTING":{"latitude":15.94498,"longitude":75.76112},"city":"Badami","district":"Bagalkot","placeid":"356tdvfe-39d02998ccaa45d7aabe5672898355e1","name":"Nandikeshwar","state":"Karnataka","category":"900-9100-0214"}
{"DISPLAY":{"latitude":21.16488,"longitude":79.08146},"ROUTING":{"latitude":21.16485,"longitude":79.0815},"town":"Sadar","city":"Nagpur","street":"Mangalwari Bazar Marg","district":"Nagpur","placeid":"356tgb0r-95a16b59a66f40d19160ddc17fd73212","name":"Internet Cafe","state":"Maharashtra","category":"700-7400-0285"}
{"DISPLAY":{"latitude":24.58006,"longitude":80.85074},"ROUTING":{"latitude":24.58006,"longitude":80.85074},"town":"Siddhart Nagar","city":"Satna","district":"Satna","placeid":"3561r4ve-db0ab818b0e403dc72fd04aaabe9b5ad","name":"Piyas Enterprises","state":"Madhya Pradesh","category":"700-7400-0141"}
{"DISPLAY":{"latitude":19.00125,"longitude":72.8287354},"ROUTING":{"latitude":19.00125,"longitude":72.8287354},"town":"Lower Parel","city":"Mumbai","district":"Mumbai","placeid":"356te7u1-ebdd8f809bb74ef8a17a0302f3376e79","name":"Mearsk India Pvt. LTD.","state":"Maharashtra","category":"700-7250-0136"}
{"DISPLAY":{"latitude":19.4298816,"longitude":72.8647},"ROUTING":{"latitude":19.4298816,"longitude":72.8647},"town":"Vasai East","city":"Vasai","district":"Palghar","placeid":"356te7yd-2a1fea3395cb491fbdc1f87fd799ebc8","name":"NANDINI SWEET & FARSAN MART","state":"Maharashtra","category":"600-6300-0245"}
{"ROUTING":{"latitude":24.81102,"longitude":85.03112},"city":"Gaya","street":"SH-4","district":"Gaya","placeid":"356jx7ps-e9980960922a0b8252659508a7d5d7d4","name":"Rupali Medical Hall","state":"Bihar","category":"600-6400-0069"}
{"DISPLAY":{"latitude":23.26437,"longitude":77.40547},"ROUTING":{"latitude":23.26433,"longitude":77.40562},"town":"Janakpuri","city":"Bhopal","district":"Bhopal","placeid":"356tsph3-9b482e82dfaf44ea9b81666a6a4bd289","name":"Haji Bakery","state":"Madhya Pradesh","category":"600-6900-0096"}
{"ROUTING":{"latitude":28.88103,"longitude":76.57391},"town":"Ram Nagar","city":"Rohtak","street":"Kaccha Beri Road","district":"Rohtak","placeid":"356jx7ps-41651c29a1e7086b2dac83449a5cdf45","name":"Sharma Medical Store","state":"Haryana","category":"600-6400-0000"}
{"ROUTING":{"latitude":9.90178,"longitude":78.10599},"town":"Jaihindpuram","city":"Madurai","street":"2nd Street","district":"Madurai","placeid":"356t9z83-b357db6addd542bfa92bebb1f0617004","name":"Jeeva Nagar","state":"Tamil Nadu","category":"900-9100-0215"}
{"ROUTING":{"latitude":28.39373,"longitude":79.4559},"town":"Bannu Nagar Sherpur","city":"Bareilly","street":"NH-74","district":"Bareilly","placeid":"356jx7ps-d38c3a8e572f0d6187e0938b2dd2c3ee","name":"Angreji Wine Shop","state":"Uttar Pradesh","category":"600-6300-0064"}
{"DISPLAY":{"latitude":24.9100995,"longitude":84.1898807},"ROUTING":{"latitude":24.9101,"longitude":84.18988},"town":"Dehri","city":"Dehri","street":"Mohanbigha Road","district":"Rohtas","placeid":"356tu7ve-b3723ef56feb4488ba04df41f9334538","name":"Purav Madhya Railway Madhya Vidyalaya","state":"Bihar","category":"800-8200-0174"}
{"ROUTING":{"latitude":24.04948,"longitude":84.11206},"town":"Daltonganj","city":"Daltonganj","street":"SH-10","district":"Palamu","placeid":"356jx7ps-b75bee8749b40b0389773fc51e516c47","name":"Gyan Bharti Public School","state":"Jharkhand","category":"800-8200-0174"}
{"ROUTING":{"latitude":13.06298,"longitude":80.26728},"town":"Anna Salai Area","city":"Chennai","street":"General Patters Road","district":"Chennai","placeid":"356jx7ps-ca03005411680519488643582049ed6a","name":"Rajesh Automobiles","state":"Tamil Nadu","category":"700-7850-0123"}
{"DISPLAY":{"latitude":14.62107,"longitude":75.63213},"ROUTING":{"latitude":14.62107,"longitude":75.63213},"town":"Islampur","city":"Ranibennur","district":"Haveri","placeid":"3561r4ve-98fd6d2c3fdb0f585ce34d881863db41","name":"Kiran Digital Colour Lab & Studio","state":"Karnataka","category":"600-6900-0101"}
{"DISPLAY":{"latitude":17.44057414,"longitude":78.50182774},"ROUTING":{"latitude":17.44056,"longitude":78.50193},"town":"Secunderabad","city":"Secunderabad","street":"No 1 Lane","district":"Hyderabad","placeid":"356tepg4-cb5cd342938240fc926730f2219f9db6","name":"Virima soft","state":"Telangana","category":"800-8200-0295"}
{"DISPLAY":{"latitude":12.97914,"longitude":77.53417},"ROUTING":{"latitude":12.97915,"longitude":77.53414},"town":"Vijaya Nagar","city":"Bengaluru","district":"Bengaluru","placeid":"356tdr1u-4cd55136b40a473984a6025ed3a028d5","name":"Kiran Men's Wear","state":"Karnataka","category":"600-6800-0089"}
{"OTHER":"http://www.facebook.com/1681074238786172","DISPLAY":{"latitude":9.6728627,"longitude":76.5659483},"ROUTING":{"latitude":9.6728627,"longitude":76.5659483},"town":"Ettumanoor","city":"Kottayam Sub-District","PHONE":"+919567551552","district":"Kottayam","placeid":"356t9wrn-e64a674eed684175b851f171f6cf26ba","name":"Land of Bikers","state":"Kerala","category":"700-7200-0268"}
{"DISPLAY":{"latitude":19.1049798,"longitude":72.8954227},"ROUTING":{"latitude":19.1049798,"longitude":72.8954227},"town":"Andheri East","city":"Mumbai","PHONE":"+912228523636","district":"Mumbai Suburban","placeid":"356te7ud-a52cad1440224089b9bb5212f12f7c3d","name":"Bhaskar Wood Works","state":"Maharashtra","category":"700-7200-0000"}
{"DISPLAY":{"latitude":24.78872,"longitude":73.97303},"ROUTING":{"latitude":24.78871,"longitude":73.97304},"town":"Mavli","city":"Mavli","street":"SH-9","PHONE":"+918094230957","district":"Udaipur","placeid":"356tskt5-e7a61321c6db49f793b062d91be9bf9f","name":"Jagdish Diesel","state":"Rajasthan","category":"700-7850-0123"}
{"DISPLAY":{"latitude":27.4982225,"longitude":95.8871166},"ROUTING":{"latitude":27.49822,"longitude":95.88711},"town":"Bordumsa","city":"Bordumsa","district":"Changlang","placeid":"356jx7ps-2da6e7f914ba0d5fef43710b71527730","name":"Kariajan N. C","state":"Arunachal Pradesh","category":"900-9100-0214"}
{"DISPLAY":{"latitude":26.7937951,"longitude":82.7321891},"ROUTING":{"latitude":26.7937951,"longitude":82.7321891},"town":"Turkahiya","city":"Basti","district":"Basti","placeid":"356tufb6-7a732e4cd1004f1085b2824a0303a285","name":"Sri Sahakara Anjaneya Swamy Temple","state":"Uttar Pradesh","category":"300-3200-0000"}
{"DISPLAY":{"latitude":19.0712377,"longitude":72.8311369},"ROUTING":{"latitude":19.0712377,"longitude":72.8311369},"town":"Khar West","city":"Mumbai","PHONE":"+912226005533","district":"Mumbai Suburban","placeid":"356te7u3-d348be20aba64656bdfa10074f1384a1","name":"Global Sales and Service","state":"Maharashtra","category":"800-8400-0000"}
{"DISPLAY":{"latitude":28.65304,"longitude":77.23139},"ROUTING":{"latitude":28.65312,"longitude":77.2313},"town":"Chandni Chowk","city":"New Delhi","district":"Central","placeid":"356ttngj-3abfac10e5e441edb6a9840f91fa7a82","name":"Vishal General Stores","state":"Delhi","category":"600-6300-0066"}
{"DISPLAY":{"latitude":31.6716205,"longitude":74.8943692},"ROUTING":{"latitude":31.6716205,"longitude":74.8943692},"town":"Moon Avenue","city":"Amritsar","PHONE":"+919646444505","district":"Amritsar","placeid":"356xjxn4-675e5e142d1005b3f41304b8a2da198c","name":"Web Land","state":"Punjab","category":"600-6800-0000"}
{"DISPLAY":{"latitude":9.34265,"longitude":76.53442},"ROUTING":{"latitude":9.34265,"longitude":76.5344},"city":"Thiruvalla","district":"Pathanamthitta","placeid":"356t9wmj-8c9f9ab0719e4008b1db45ff5155e5ab","name":"Joy Electronics","state":"Kerala","category":"600-6500-0072"}
{"DISPLAY":{"latitude":26.97919,"longitude":75.74611},"ROUTING":{"latitude":26.97921,"longitude":75.74614},"town":"Murlipura","city":"Jaipur","street":"Benar Road","district":"Jaipur","placeid":"356tsvc7-987564d9cf2a436bbc3fa67fff902db6","name":"Royal matching centre","state":"Rajasthan","category":"600-6800-0000","MOBILE":"+919359359338"}
{"DISPLAY":{"latitude":29.4709108,"longitude":77.7024722},"ROUTING":{"latitude":29.4709108,"longitude":77.7024722},"town":"Civil Lines","city":"Muzaffarnagar","district":"Muzaffarnagar","placeid":"356ttpr8-f1d00ba3dbaf47dc938c8fde80be2147","name":"District Court","state":"Uttar Pradesh","category":"800-8100-0171"}
{"DISPLAY":{"latitude":12.33736,"longitude":76.69735},"ROUTING":{"latitude":12.33736,"longitude":76.69735},"town":"Rammanahalli","city":"Mysuru","district":"Mysuru","placeid":"356tdnw1-d4204650e74b4c519e0d417a686f6b33","name":"Ambedkar Nagar","state":"Karnataka","category":"900-9100-0215"}
{"DISPLAY":{"latitude":26.43335,"longitude":80.33373},"ROUTING":{"latitude":26.43323,"longitude":80.33368},"town":"Kidwai Nagar","city":"Kanpur","street":"Barah Devi Road","PHONE":"+915122604704","district":"Kanpur Nagar","placeid":"356jx7ps-cb5e8212e6c20b636213612c3aa2d448","name":"Koutons Family Store","state":"Uttar Pradesh","category":"600-6800-0000"}
{"DISPLAY":{"latitude":13.0409584,"longitude":77.5171622},"ROUTING":{"latitude":13.04087,"longitude":77.51708},"town":"T Dasarahalli","city":"Bengaluru","street":"Bengaluru Pune National Highway","district":"Bengaluru","placeid":"356tdr45-cd7ee613aa5d4e3db3d149368ecf17b9","name":"Innovative It Solution Laptop Service Centre","state":"Karnataka","category":"600-6500-0072"}
{"DISPLAY":{"latitude":28.67827,"longitude":77.16639},"ROUTING":{"latitude":28.67827,"longitude":77.16639},"town":"Tri Nagar","city":"New Delhi","district":"North West","placeid":"3561r4ve-a930a2a46e0e0d9aae4a40726282c04e","name":"Reshma Hair Dresser","state":"Delhi","category":"600-6950-0000"}
{"ROUTING":{"latitude":19.0114,"longitude":72.82881},"town":"Dadar West","city":"Mumbai","street":"Dattu Bandekar Chowk","PHONE":"+912224308885","district":"Mumbai","placeid":"356jx7ps-a3e4a743c6d1051210d4fbc2c3b095ba","name":"Life Line Computers","state":"Maharashtra","category":"700-7200-0275"}
{"DISPLAY":{"latitude":19.25454,"longitude":72.85064},"ROUTING":{"latitude":19.25455,"longitude":72.8506},"town":"Dahisar West","city":"Mumbai","street":"Veer Hanuman Nagar Road","district":"Mumbai Suburban","placeid":"356jx7ps-a6add8825f3f0af1bbe2b2492f82028f","name":"New Heritage Co-op Housing Society","state":"Maharashtra","category":"900-9300-0221"}
{"DISPLAY":{"latitude":9.1444876,"longitude":76.7328816},"ROUTING":{"latitude":9.1444876,"longitude":76.7328816},"town":"Adoor","city":"Adoor","district":"Pathanamthitta","placeid":"356t9ws4-bb149cbdc93d492d9efd6be4c4b7f3ce","name":"Qthundathil Ghion Plaza","state":"Kerala","category":"700-7250-0136"}
{"DISPLAY":{"latitude":26.7560903,"longitude":82.207723},"ROUTING":{"latitude":26.7560903,"longitude":82.207723},"town":"Kurha Keshav Pur","city":"Faizabad","district":"Faizabad","placeid":"356tuf2n-d052e4a4819a46818dcbdf9b4f5fe360","name":"Aslam Provision Store","state":"Uttar Pradesh","category":"600-6300-0066"}
{"DISPLAY":{"latitude":26.2388646,"longitude":85.482829},"ROUTING":{"latitude":26.23886,"longitude":85.48282},"town":"Madarpur Jairam","city":"Bochaha","district":"Muzaffarpur","placeid":"356jx7ps-8df47e68fa41060cb26cf63e99f78609","name":"Madarapur Jayaram","state":"Bihar","category":"900-9100-0215"}
{"OTHER":"http://www.facebook.com/1752402201476402","DISPLAY":{"latitude":10.5953307,"longitude":76.4810615},"ROUTING":{"latitude":10.5953307,"longitude":76.4810615},"city":"Alathur","PHONE":"+918156967618","district":"Palakkad","placeid":"356t9ykk-901f571b4fec43cea1de0b9454921caa","name":"Vrendhavan","state":"Kerala","category":"700-7200-0257"}
{"DISPLAY":{"latitude":17.41448,"longitude":78.42109},"ROUTING":{"latitude":17.41428,"longitude":78.42103},"town":"Film Nagar","city":"Hyderabad","district":"Hyderabad","placeid":"356tepg0-a0533fa7ccdb4c76a4165331f7229183","name":"Masti Health and Beauty Pvt. LTD.","WEBADDRESS":"http://o2spa.org","state":"Telangana","category":"600-6900-0096"}
{"ROUTING":{"latitude":15.13028,"longitude":75.47056},"town":"Lakshmeshwar","city":"Shirhatti","district":"Gadag","placeid":"356jx7ps-1f73d3b883f20768a3397a678e2c5962","name":"Government High School","state":"Karnataka","category":"800-8200-0174"}
{"DISPLAY":{"latitude":25.1627963,"longitude":82.5073092},"ROUTING":{"latitude":25.1627963,"longitude":82.5073092},"town":"Vindhyachal","city":"Mirzapur","district":"Mirzapur","placeid":"3561r4ve-03cdf26759050be6d846bd097d0a3f3c","name":"Surya Electronics","state":"Uttar Pradesh","category":"600-6500-0076"}
{"DISPLAY":{"latitude":23.24735331,"longitude":72.637132668},"ROUTING":{"latitude":23.24683,"longitude":72.63812},"town":"Sector 25","city":"Gandhinagar","district":"Gandhinagar","placeid":"356ts5sk-baf42423f87a41e1bfdfa1fea4592d12","name":"B2b Market Place - Procure Profit","WEBADDRESS":"http://procureprofit.com","state":"Gujarat","category":"600-6900-0247","MOBILE":"+917964512673"}
{"DISPLAY":{"latitude":28.9051014,"longitude":78.4661701},"ROUTING":{"latitude":28.9051014,"longitude":78.4661701},"town":"Sarai Kona Mohalla","city":"Amroha","district":"Jyotiba Phule Nagar","placeid":"356xjxn4-abda68436d0200e0182bccc80918cf73","name":"Zakir X-Ray","state":"Uttar Pradesh","category":"800-8000-0000"}
{"DISPLAY":{"latitude":23.7537161,"longitude":86.7509813},"ROUTING":{"latitude":23.7537161,"longitude":86.7509813},"city":"Maithon","PHONE":"+919931126616","district":"Dhanbad","placeid":"356tujxn-414cc5a0cb8e4ed28ffa86482631848e","name":"HIGH SCHOOL MUGMA","state":"Jharkhand","category":"800-8200-0174","MOBILE":"+919931126616"}
{"DISPLAY":{"latitude":18.9947303,"longitude":75.7542682},"ROUTING":{"latitude":18.9947303,"longitude":75.7542682},"town":"Mashral Nagar","city":"Beed","district":"Beed","placeid":"3561r4ve-c6c7a153ffd0068041337b3f93a5ec80","name":"Baskhan Optical","state":"Maharashtra","category":"800-8000-0161"}
{"DISPLAY":{"latitude":28.57218,"longitude":77.24081},"ROUTING":{"latitude":28.57217,"longitude":77.2408},"town":"Lajpat Nagar","city":"New Delhi","district":"South","placeid":"3561r4ve-5b5462a9f696019f734b19fa4f67c98a","name":"Pasang Profession","state":"Delhi","category":"600-6950-0000","MOBILE":"+919818864287"}
{"DISPLAY":{"latitude":17.1655438,"longitude":79.4245832},"ROUTING":{"latitude":17.1655438,"longitude":79.4245832},"town":"Nakrekal","city":"Kethe Palle","district":"Nalgonda","placeid":"356tg03x-4f2fc27f10c849d7869950e1b93c0682","name":"Gangadhar Cloth Stores","state":"Telangana","category":"600-6800-0000"}
{"ROUTING":{"latitude":17.01926,"longitude":74.80573},"city":"Kavathe-Mahankal","street":"MSH-3","district":"Sangli","placeid":"356jx7ps-25db94c0c60404d9bfd1c235a92cff28","name":"New Sunil Sheti Seva Kendra","state":"Maharashtra","category":"600-6900-0096"}
{"DISPLAY":{"latitude":29.9695795,"longitude":76.8803505},"ROUTING":{"latitude":29.96958,"longitude":76.88035},"town":"Sector 5","city":"Kurukshetra","district":"Kurukshetra","placeid":"356jx7ps-616701bf07a10b62fa9b0bdf316f7499","name":"State Bank of India","state":"Haryana","category":"700-7010-0108"}
{"DISPLAY":{"latitude":30.1176605,"longitude":77.2826696},"ROUTING":{"latitude":30.1176605,"longitude":77.2826696},"town":"Old Haminda","city":"Yamunanagar","district":"Yamunanagar","placeid":"3561r4ve-23b22b448c2c0bd7a58fd48d1ac62e6c","name":"Taj Properties","state":"Haryana","category":"700-7400-0145"}
{"ROUTING":{"latitude":31.53887,"longitude":75.91483},"town":"Bahdur Pur","city":"Hoshiarpur","district":"Hoshiarpur","placeid":"356jx7ps-28a9fb5d4bb808500effba73ea1c81fb","name":"Peris General Store","state":"Punjab","category":"600-6300-0066"}
{"ROUTING":{"latitude":26.44978,"longitude":74.64522},"town":"Alwar Gate Area","city":"Ajmer","street":"Mayur Colony Road","district":"Ajmer","placeid":"356tstn6-61115e9951a9471f908143f2834afcb6","name":"Ajmer Typing & Shorthand Institute","state":"Rajasthan","category":"800-8200-0295"}
{"ROUTING":{"latitude":13.10149,"longitude":80.27947},"town":"Sowcarpet","city":"Chennai","street":"Venkatraman Street","district":"Chennai","placeid":"356jx7ps-4d0550490e4a09e2933b49f35839ec3d","name":"Sowcar","state":"Tamil Nadu","category":"900-9300-0221"}
{"DISPLAY":{"latitude":22.6359052,"longitude":88.3673508},"ROUTING":{"latitude":22.6359052,"longitude":88.3673508},"town":"Bara Nagar","city":"Kolkata","district":"North Twenty Four Parganas","placeid":"356tunbf-a5031cd079c2491a9e4e42799109d90d","name":"Joysree","state":"West Bengal","category":"200-2100-0019"}
{"ROUTING":{"latitude":18.00248,"longitude":74.99161},"city":"Indapur","street":"SH-71","district":"Pune","placeid":"356jx7ps-d6ac6a3813770401d0738e3b8d45e42c","name":"Siddhi Kirana & General Stores","state":"Maharashtra","category":"600-6300-0066"}
{"ROUTING":{"latitude":30.7351,"longitude":76.73608},"town":"Sector 40","city":"Chandigarh","district":"Chandigarh","placeid":"356jx7ps-3e6f5d4c663c0cf25650d46285a0c601","name":"Xpress Money","state":"Chandigarh","category":"700-7250-0136"}
{"ROUTING":{"latitude":25.5097,"longitude":77.45057},"city":"Pohari","street":"SH-6","district":"Shivpuri","placeid":"356jx7ps-c55dd1880da7088a10f55211e37f60d3","name":"Madhyanchal Gramin Bank-Pohari Rural","state":"Madhya Pradesh","category":"700-7000-0107"}
{"OTHER":"http://www.facebook.com/1771347179842484","ROUTING":{"latitude":22.95119,"longitude":75.06583},"city":"Sardarpur","street":"SH-35","PHONE":"+917296264599","district":"Dhar","placeid":"356jx7ps-36a3748c4d5003106535dfa2b42853ca","name":"Shree Rajendra Suri Sakh Sahakarita","state":"Madhya Pradesh","category":"700-7400-0141"}
{"DISPLAY":{"latitude":27.91176,"longitude":78.11073},"ROUTING":{"latitude":27.91178,"longitude":78.11077},"town":"Sona Nagar","city":"Aligarh","district":"Aligarh","placeid":"356tszwc-8746772f1f344cd2bd30de4bd7a8c631","name":"Mahrishi Mart","state":"Uttar Pradesh","category":"700-7200-0000"}
{"ROUTING":{"latitude":22.6562,"longitude":88.41977},"town":"Birati","city":"Kolkata","street":"Howrah Station Road","district":"North Twenty Four Parganas","placeid":"356jx7ps-ca5af403a6ef0ec68f1a5a686e8d50e4","name":"Niramaye","state":"West Bengal","category":"800-8000-0158","MOBILE":"+919883328165"}
{"OTHER":"http://www.facebook.com/1549105571848796","DISPLAY":{"latitude":25.6176888,"longitude":85.1535147},"ROUTING":{"latitude":25.6176888,"longitude":85.1535147},"town":"Bankipur","city":"Patna","district":"Patna","placeid":"356tus99-1eb7968ff5f342d6a7b6c3aaca2c178f","name":"Arkians Office","state":"Bihar","category":"200-2000-0015"}
{"DISPLAY":{"latitude":22.28351,"longitude":70.75656},"ROUTING":{"latitude":22.28352,"longitude":70.75659},"town":"Saurashtra University Area","city":"Rajkot","street":"Pushkardham Main Road","district":"Rajkot","placeid":"356tefqf-48a424951afa4efeb4e676906503017f","name":"Pooja Lace And Material","state":"Gujarat","category":"600-6800-0000"}
{"OTHER":"http://www.facebook.com/1714522188593043","DISPLAY":{"latitude":22.7199931,"longitude":75.9062546},"ROUTING":{"latitude":22.7199931,"longitude":75.9062546},"town":"Bangali Square","city":"Indore","PHONE":"+919111292611","district":"Indore","placeid":"356tsjcr-e96c7d1535264f46ab2259cf0cc18166","name":"Big Boys Cloth's","state":"Madhya Pradesh","category":"600-6800-0000"}
{"DISPLAY":{"latitude":22.4871081,"longitude":88.2788789},"ROUTING":{"latitude":22.4871081,"longitude":88.2788789},"town":"Sarsuna","city":"Kolkata","district":"South Twenty Four Parganas","placeid":"356tgyzb-2a1b976e3f1542c8b4504c27b7a64510","name":"Tara Ma Constructions","state":"West Bengal","category":"700-7250-0136","MOBILE":"+919831443194"}
{"DISPLAY":{"latitude":27.53441,"longitude":76.60693},"ROUTING":{"latitude":27.5343,"longitude":76.60687},"town":"Malviya Nagar","city":"Alwar","street":"Malviya Nagar Chowk","district":"Alwar","placeid":"356tsykx-8d51d25ace5644d1b60cd073a90360ae","name":"Arora Departmental Store","state":"Rajasthan","category":"600-6300-0066"}
{"ROUTING":{"latitude":11.94481,"longitude":79.801},"town":"Thattanchavady","city":"Puducherry","street":"NH-66","district":"Puducherry","placeid":"356jx7ps-e5d990d02f780e1920dbf810f17ec532","name":"Hotel Ginger & Garlic","state":"Puducherry","category":"202-000"}
{"DISPLAY":{"latitude":20.26541,"longitude":85.8336},"ROUTING":{"latitude":20.26555,"longitude":85.83371},"town":"Ashok Nagar","city":"Bhubaneswar","district":"Khordha","placeid":"356tgt53-cff60984d97347eca16a4b3f40732032","name":"Capital Main Market Western","state":"Odisha","category":"600-6100-0062"}
{"DISPLAY":{"latitude":28.68653,"longitude":77.32343},"ROUTING":{"latitude":28.68644,"longitude":77.32351},"town":"Dilshad Garden","city":"New Delhi","district":"North East","placeid":"356ttngp-787a258d25be41c59091a84bf46f2bd5","name":"Nagpal Clinic","state":"Delhi","category":"800-8000-0158"}
{"ROUTING":{"latitude":22.52911,"longitude":88.34529},"town":"Bhawanipur","city":"Kolkata","street":"Kalighat Road","district":"Kolkata","placeid":"356tunb4-1e22898f7de44a70a00ef832571ce491","name":"Aadi Ambika Ausadhalay Chikitsalay","state":"West Bengal","category":"800-8000-0000"}
{"DISPLAY":{"latitude":9.9907102,"longitude":76.3096813},"ROUTING":{"latitude":9.9907102,"longitude":76.3096813},"town":"Palarivattom","city":"Ernakulam","district":"Ernakulam","placeid":"356xjxn4-da41eea18b5c0805833593bdc0244960","name":"Abr Bakery & Cool Bar","state":"Kerala","category":"600-6900-0096"}
{"DISPLAY":{"latitude":19.06492,"longitude":72.91701},"ROUTING":{"latitude":19.06487,"longitude":72.91711},"town":"Govandi West","city":"Mumbai","district":"Mumbai Suburban","placeid":"356jx7ps-a9e4579f45540c99f2f8b3e013ae7ee3","name":"Building No 32a","state":"Maharashtra","category":"900-9300-0221"}
{"DISPLAY":{"latitude":12.9571256,"longitude":78.2716405},"ROUTING":{"latitude":12.9571256,"longitude":78.2716405},"town":"Swarn Nagar","city":"Robertsonpet","district":"Kolar","placeid":"356xjxn4-fb0b6ea013a90f1a8ad8ebbf3f15ce27","name":"Eshwar Agencies","state":"Karnataka","category":"600-6700-0087"}
{"DISPLAY":{"latitude":28.63719,"longitude":77.09481},"ROUTING":{"latitude":28.63718,"longitude":77.09481},"town":"Tilak Nagar","city":"New Delhi","district":"West","placeid":"356jx7ps-376981070d910d62ae318540b4003e35","name":"Much More","state":"Delhi","category":"600-6800-0090"}
{"ROUTING":{"latitude":10.06644,"longitude":76.35951},"town":"Aluva Nad","city":"Aluva","district":"Ernakulam","placeid":"356t9y33-f6f7ce77a1e44de6bf5cf555918a470b","name":"Chalepally","state":"Kerala","category":"900-9100-0215"}
{"DISPLAY":{"latitude":16.281995,"longitude":80.6161871},"ROUTING":{"latitude":16.281995,"longitude":80.6161871},"city":"Chebrolu","district":"Guntur","placeid":"356tfckd-bd303bcd3a7045e2b96ab3a1e1b9581a","name":"Mpps Gudivada","state":"Andhra Pradesh","category":"800-8200-0174"}
{"DISPLAY":{"latitude":28.49989,"longitude":77.31275},"ROUTING":{"latitude":28.49989,"longitude":77.31271},"town":"Badarpur","city":"New Delhi","district":"South","placeid":"356ttnfp-c72fc78e64e546558c5f06873a04d584","name":"Gautam Mobile Repairing","state":"Delhi","category":"600-6600-0000"}
{"DISPLAY":{"latitude":28.66167,"longitude":77.26388},"ROUTING":{"latitude":28.66165,"longitude":77.26396},"town":"Gandhi Nagar","city":"New Delhi","PHONE":"+911122083720","district":"East","placeid":"356ttngn-e45ab48a7bc348f6a1df60524ec22d8a","name":"A. V. M. Garment","state":"Delhi","category":"600-6800-0000"}
{"ROUTING":{"latitude":12.74277,"longitude":77.83387},"town":"Raghavendra Nagar","city":"Hosur","district":"Krishnagiri","placeid":"356jx7ps-5bfdf32f19190bddf68bd1d91fa13bf9","name":"Gurukulam Dance Academy","state":"Tamil Nadu","category":"800-8200-0360","MOBILE":"+917200672992"}
{"DISPLAY":{"latitude":22.1405708,"longitude":82.0564336},"ROUTING":{"latitude":22.1405708,"longitude":82.0564336},"city":"Takhatpur","district":"Bilaspur","placeid":"356tgfmg-70744f87c20b4538b62cb934b0a24eec","name":"HDFC BANK Bharni","state":"Chhattisgarh","category":"700-7000-0107"}
{"DISPLAY":{"latitude":28.6675,"longitude":77.10243},"ROUTING":{"latitude":28.66752,"longitude":77.10239},"town":"Paschim Vihar","city":"New Delhi","district":"West","placeid":"356ttng4-855f4ef16f6d4d5dbe7817aa3408c7a2","name":"Shad Zari Art","state":"Delhi","category":"600-6800-0090"}
{"DISPLAY":{"latitude":11.0385399,"longitude":76.1025508},"ROUTING":{"latitude":11.0385399,"longitude":76.1025508},"city":"Perinthalmanna","district":"Malappuram","placeid":"356xjxn4-a75e72c203fd028212e5d90bcb1e8eea","name":"Kurkka","state":"Kerala","category":"900-9300-0221"}
{"DISPLAY":{"latitude":29.4020393,"longitude":76.6596778},"ROUTING":{"latitude":29.4020393,"longitude":76.6596778},"town":"Safidon","city":"Safidon","district":"Jind","placeid":"356ttnx2-daccdf96a4ed41d7b1de8949cd8e4b19","name":"Aditya Medical Store","state":"Haryana","category":"600-6400-0000"}
{"DISPLAY":{"latitude":26.207682,"longitude":75.0425144},"ROUTING":{"latitude":26.207682,"longitude":75.0425144},"city":"Sarwar","district":"Ajmer","placeid":"356tstm5-673f0c918a024f4490dc03527333d9c7","name":"Prajapati Janral Store Borada","state":"Rajasthan","category":"600-6300-0066"}
{"ROUTING":{"latitude":13.0857,"longitude":79.66375},"town":"Arakonam","city":"Arakonam","street":"SH-58","district":"Vellore","placeid":"356jx7ps-24139ec9fa88028dd106dc1b2326f20a","name":"Mukesh Scans","state":"Tamil Nadu","category":"800-8000-0000"}
{"ROUTING":{"latitude":13.29085,"longitude":79.2526},"city":"Gangadhara Nellore","street":"Chittoor Road","district":"Chittoor","placeid":"356jx7ps-937dc1fda411078fdd12d755e17df078","name":"ST. Joseph's Health Centre","state":"Andhra Pradesh","category":"800-8000-0158"}
{"DISPLAY":{"latitude":19.3090676,"longitude":84.8061574},"ROUTING":{"latitude":19.3090676,"longitude":84.8061574},"town":"Ashok Nagar","city":"Brahmapur","district":"Ganjam","placeid":"3561r4ve-f187dd3782050e5e890a705a984476ce","name":"Dr Charan Panda","state":"Odisha","category":"800-8000-0155"}
{"ROUTING":{"latitude":16.18341,"longitude":75.6957},"town":"Kaulpeth","city":"Bagalkot","district":"Bagalkot","placeid":"356jx7ps-b77b1cdc3a3d054527fe3ae7835b4c2a","name":"Shri Bhawani Tech","state":"Karnataka","category":"600-6500-0075"}
{"ROUTING":{"latitude":24.5772,"longitude":73.69962},"town":"Surajpole","city":"Udaipur","street":"City Station Road","district":"Udaipur","placeid":"356jx7ps-a73dfac257eb0ef4210e5ae032945ec2","name":"Indiamart Intermesh","state":"Rajasthan","category":"700-7250-0136"}
{"DISPLAY":{"latitude":22.29055,"longitude":73.24244},"ROUTING":{"latitude":22.29055,"longitude":73.24244},"town":"Parivar Society","city":"Vadodara","street":"Narayan Higlife Road","district":"Vadodara","placeid":"356jx7ps-de13e99e7f4a0cf2b005d07e32d6a3eb","name":"Shiv Residency","state":"Gujarat","category":"900-9300-0221"}
{"ROUTING":{"latitude":28.63609,"longitude":77.35701},"town":"Indirapuram","city":"Ghaziabad","district":"Ghaziabad","placeid":"356jx7ps-ce25c8e6102e0bb80f36b5da0c1fd8bb","name":"Tyagi Pepsi Agency","state":"Uttar Pradesh","category":"700-7250-0136","MOBILE":"+918750015006"}
{"ROUTING":{"latitude":32.72968,"longitude":74.86216},"town":"Kaleet Nagar","city":"Jammu","street":"Hari Market Road","district":"Jammu","placeid":"356jx7ps-d13a0328949b0ed60827f1d4986b157f","name":"Pandit Ji Bikes & Cakes","state":"Jammu & Kashmir","category":"600-6900-0096"}
{"ROUTING":{"latitude":26.74668,"longitude":83.35691},"town":"Bade Kajipur","city":"Gorakhpur","street":"Rayti Road","district":"Gorakhpur","placeid":"356tug20-43da83a5a06f4824a5875c444a9601a3","name":"Shukla Institute","state":"Uttar Pradesh","category":"800-8200-0360"}
{"DISPLAY":{"latitude":28.689367,"longitude":77.3848277},"ROUTING":{"latitude":28.689367,"longitude":77.3848277},"town":"Karaihara","city":"Ghaziabad","district":"Ghaziabad","placeid":"356ttp50-8eb8c4916f684c308a834132cbabe9d4","name":"Navdeep Gift Gallery","state":"Uttar Pradesh","category":"600-6900-0096"}
{"ROUTING":{"latitude":26.75689,"longitude":79.06},"city":"Etawah Sub-District","street":"NH-2","district":"Etawah","placeid":"356jx7ps-2e2bb029908e0029bec935050a000555","name":"Rama Institute & Computer Science","state":"Uttar Pradesh","category":"800-8200-0360"}
{"DISPLAY":{"latitude":31.2225806,"longitude":75.7767604},"ROUTING":{"latitude":31.2225806,"longitude":75.7767604},"town":"Balmik Nagar","city":"Phagwara","district":"Kapurthala","placeid":"3561r4ve-85b50562f6010afbb3a1e22e5a0e0c36","name":"Verma Music Centre","state":"Punjab","category":"600-6900-0105"}
{"DISPLAY":{"latitude":27.1904822,"longitude":77.9905755},"ROUTING":{"latitude":27.1904822,"longitude":77.9905755},"town":"Loha Mandi","city":"Agra","district":"Agra","placeid":"356tsz6w-93fae8df34e14dfe9fea1f30be492e17","name":"Galaxy Mobile Care","state":"Uttar Pradesh","category":"600-6500-0072","MOBILE":"+917713442042"}
{"DISPLAY":{"latitude":26.835067,"longitude":75.8218954},"ROUTING":{"latitude":26.835067,"longitude":75.8218954},"town":"Jagatpura","city":"Jaipur","PHONE":"+911412721235","district":"Jaipur","placeid":"356tsvbt-10e541ce2d9c4d1e822c49ba092e29f8","name":"Agarwal Sanitations","state":"Rajasthan","category":"600-6600-0077"}
{"DISPLAY":{"latitude":23.4113038,"longitude":85.3160808},"ROUTING":{"latitude":23.4113,"longitude":85.31608},"town":"Shastri Nagar","city":"Ranchi","PHONE":"+919304407057","district":"Ranchi","placeid":"356jx7ps-8dbf548fec8c0bfa5eb65afc1977c3f0","name":"Zenith Trading","state":"Jharkhand","category":"600-6500-0072","MOBILE":"+919304407057"}
{"ROUTING":{"latitude":13.08388,"longitude":80.17026},"town":"Mogappair West","city":"Chennai","street":"Kambar Road","district":"Chennai","placeid":"356jx7ps-c7d3c99f82410fd638e989f06d6afc8c","name":"Sri Murugan Driving School","state":"Tamil Nadu","category":"800-8200-0295","MOBILE":"+919444106329"}
{"ROUTING":{"latitude":29.79762,"longitude":76.40556},"town":"Amargarh","city":"Kaithal","street":"Truck Market Road","district":"Kaithal","placeid":"356jx7ps-8eca84a9f6ba0bd7f105851e736d6cab","name":"Madan Auto Electric Works","state":"Haryana","category":"700-7850-0000"}
{"ROUTING":{"latitude":28.7665,"longitude":78.00221},"town":"Buxer","city":"Garhmukteshwar Sub-District","street":"Service Road","district":"Hapur","placeid":"356jx7ps-7dd7f9f37fa80c3ead7a6246225b7399","name":"Niyadar Mal Mukut Lal Buxer","state":"Uttar Pradesh","category":"600-6300-0066"}
{"ROUTING":{"latitude":13.12582,"longitude":80.08443},"town":"Avadi","city":"Chennai","district":"Thiruvallur","placeid":"356tf2fw-576425cd8b4341c29b3c4c5a3c7a8b7b","name":"Balaji Nagar","state":"Tamil Nadu","category":"900-9100-0215"}
{"DISPLAY":{"latitude":32.3418485,"longitude":75.3305136},"ROUTING":{"latitude":32.34185,"longitude":75.33051},"city":"Hiranagar","district":"Kathua","placeid":"356jx7ps-a17086d6dd2d05d1ec36178c01c98d83","name":"Chhan Lal Din","state":"Jammu & Kashmir","category":"900-9100-0214"}
{"DISPLAY":{"latitude":28.51426,"longitude":77.04145},"ROUTING":{"latitude":28.51431,"longitude":77.04145},"town":"Sector 1","city":"Gurugram","PHONE":"+919891020916","district":"Gurugram","placeid":"356ttnf1-a4bc766060534038b021177b058c156c","name":"Golden Gas Service","state":"Haryana","category":"700-7200-0000"}
{"DISPLAY":{"latitude":22.9763898,"longitude":76.0646316},"ROUTING":{"latitude":22.9763898,"longitude":76.0646316},"town":"Radhanganj","city":"Dewas","district":"Dewas","placeid":"3561r4ve-3b048df711c700f4976c3d9940e0bdcf","name":"Grooming Beauty Parlour and General Stores","state":"Madhya Pradesh","category":"600-6950-0000"}
{"DISPLAY":{"latitude":12.494589,"longitude":78.5679689},"ROUTING":{"latitude":12.494589,"longitude":78.5679689},"town":"Tirupathur","city":"Tirupathur","district":"Vellore","placeid":"356tdpz5-e37f05b2009c4247bec7358282f237b1","name":"Shaik Traders","state":"Tamil Nadu","category":"700-7250-0136"}
{"ROUTING":{"latitude":9.91832,"longitude":78.11952},"town":"Madurai Main","city":"Madurai","street":"S South Chitrai Street","PHONE":"+914522344937","district":"Madurai","placeid":"356jx7ps-264d8184411d00eff763085c9b955b7f","name":"Dhanabalan Stores","state":"Tamil Nadu","category":"600-6800-0000"}
{"ROUTING":{"latitude":30.9127,"longitude":75.87337},"town":"Shivaji Nagar","city":"Ludhiana","street":"SH-20","district":"Ludhiana","placeid":"356jx7ps-9e58719bd61802fa37dd66dd35b0591c","name":"Pawan Paint & Hardware Store","state":"Punjab","category":"600-6600-0077"}
{"OTHER":"http://www.facebook.com/301792603332436","DISPLAY":{"latitude":34.03918,"longitude":74.79869},"ROUTING":{"latitude":34.03918,"longitude":74.79869},"town":"Barzul","city":"Srinagar","district":"Srinagar","placeid":"356twj1w-9a2264cf094b4a9f9c49246f29799006","name":"Reshi Tours Travels Parraypora","state":"Jammu & Kashmir","category":"700-7460-0115"}
{"DISPLAY":{"latitude":19.19206,"longitude":72.97751},"ROUTING":{"latitude":19.19209,"longitude":72.97739},"town":"Thane West","city":"Thane","street":"Netaji Subhash Chandra Bose Road","district":"Thane","placeid":"356te7vh-fcea61499b634cb484362e121b570470","name":"Samsung","state":"Maharashtra","category":"600-6500-0074"}
{"DISPLAY":{"latitude":19.41316,"longitude":72.82599},"ROUTING":{"latitude":19.41318,"longitude":72.82602},"town":"Nalasopara East","city":"Nalasopara","street":"Achole Road","district":"Palghar","placeid":"356te7y3-975570a2a3734457a7ab188d4c677e60","name":"Satyam Jewellers","state":"Maharashtra","category":"600-6900-0356"}
{"DISPLAY":{"latitude":12.9076408,"longitude":80.1430283},"ROUTING":{"latitude":12.9076408,"longitude":80.1430283},"town":"Selaiyur","city":"Chennai","district":"Kancheepuram","placeid":"356tf2cr-2c6fe8cb1daf43889567a487555ae628","name":"Mizpah Computers","state":"Tamil Nadu","category":"600-6500-0072"}
{"DISPLAY":{"latitude":28.68081,"longitude":77.3204146},"ROUTING":{"latitude":28.68081,"longitude":77.3204146},"town":"Dilshad Garden","city":"New Delhi","district":"North East","placeid":"356ttngp-5205e112b55f459cae5377928991108c","name":"Verma Properties","state":"Delhi","category":"600-6900-0096","MOBILE":"+919891271175"}
{"DISPLAY":{"latitude":12.96283,"longitude":77.58262},"ROUTING":{"latitude":12.9628,"longitude":77.58262},"town":"Kalasipalyam New Extension","city":"Bengaluru","district":"Bengaluru","placeid":"356tdr1t-e23d243ba6bd4f4abdcf8355ef7d4af3","name":"Tea Stall","state":"Karnataka","category":"100-1100-0010"}
{"DISPLAY":{"latitude":21.7534517,"longitude":72.0916793},"ROUTING":{"latitude":21.7534517,"longitude":72.0916793},"town":"Bhavnagar","city":"Bhavnagar","district":"Bhavnagar","placeid":"3561r4ve-2d5e93fdd8fd0b967d06d90b27e7492f","name":"Axis Jewelers","state":"Gujarat","category":"600-6900-0101"}
{"DISPLAY":{"latitude":12.97204,"longitude":77.52994},"ROUTING":{"latitude":12.97206,"longitude":77.52994},"town":"Vijaya Nagar","city":"Bengaluru","PHONE":"+918023507171","district":"Bengaluru","placeid":"356tdr1u-bf39bbcc8cc54793846d1ef0c4d9bc66","name":"Excel Security Services","state":"Karnataka","category":"700-7200-0263"}
{"ROUTING":{"latitude":12.67907,"longitude":78.61891},"town":"Muslimpur","city":"Vaniyambadi","district":"Vellore","placeid":"356jx7ps-f9f5f09e886e09daf14fd4fc6d60c6eb","name":"RK Mobiles","state":"Tamil Nadu","category":"600-6500-0072"}
{"DISPLAY":{"latitude":17.73404,"longitude":83.34096},"ROUTING":{"latitude":17.73403,"longitude":83.34095},"town":"M.V.P Colony","city":"Visakhapatnam","street":"Lawsons Bay Colony Road","PHONE":"+919849194611","district":"Visakhapatnam","placeid":"356jx7ps-3e896fb9f9870c1c6302b5eea4d986d0","name":"Vasu Car Care","state":"Andhra Pradesh","category":"700-7850-0123","MOBILE":"+919849194611"}
{"DISPLAY":{"latitude":22.6619,"longitude":88.39173},"ROUTING":{"latitude":22.6619,"longitude":88.39172},"town":"Belgharia","city":"Kolkata","district":"North Twenty Four Parganas","placeid":"356tunbg-6e057ed0efa049f19f1dc6f3a8955981","name":"Family Restaurant","state":"West Bengal","category":"202-000"}
{"DISPLAY":{"latitude":21.5006041,"longitude":76.6961357},"ROUTING":{"latitude":21.5006,"longitude":76.69613},"city":"Khaknar","district":"Burhanpur","placeid":"356jx7ps-70c36e715f5c01c0376bc4e8a5e48fb0","name":"Teliya Dhad","state":"Madhya Pradesh","category":"900-9100-0214"}
{"DISPLAY":{"latitude":12.9135764,"longitude":80.1435363},"ROUTING":{"latitude":12.9135764,"longitude":80.1435363},"town":"Selaiyur","city":"Chennai","district":"Kancheepuram","placeid":"356tf2cr-a5e18aa827ef43179c1f48aef7ba14e2","name":"Lakshmi Salon","state":"Tamil Nadu","category":"600-6900-0096","MOBILE":"+919884459843"}
{"DISPLAY":{"latitude":15.82985,"longitude":74.50711},"ROUTING":{"latitude":15.82985,"longitude":74.50714},"town":"Anagol","city":"Belagavi","street":"5th Cross Road","district":"Belagavi","placeid":"356tdufp-547dc4964fd246ca822cd9476d70ad2a","name":"Anamaya","state":"Karnataka","category":"700-7400-0292"}
{"DISPLAY":{"latitude":28.68247,"longitude":77.0456},"ROUTING":{"latitude":28.68242,"longitude":77.04559},"town":"Nangloi","city":"New Delhi","district":"West","placeid":"3561r4ve-87bed46163990e6a24ed945c2dfc6ee7","name":"Delhi Metro Pillar No- 464","state":"Delhi","category":"700-7400-0000"}
{"DISPLAY":{"latitude":26.47308,"longitude":80.3317},"ROUTING":{"latitude":26.47301,"longitude":80.33157},"town":"Colonel Ganj","city":"Kanpur","street":"Nala Road","district":"Kanpur Nagar","placeid":"356tu9ne-eae144d84437451385a9d0a89938c781","name":"R.K.Tailors","state":"Uttar Pradesh","category":"700-7400-0149"}
{"DISPLAY":{"latitude":12.97846,"longitude":80.18829},"ROUTING":{"latitude":12.9783,"longitude":80.18828},"town":"Nanganallur","city":"Chennai","district":"Kancheepuram","placeid":"356tf31b-fcbdcd6a02304389a00b6b597595f748","name":"Sridhar Advocate","state":"Tamil Nadu","category":"700-7250-0136","MOBILE":"+919884134264"}
{"ROUTING":{"latitude":28.7231,"longitude":77.06465},"town":"Begumpur","city":"New Delhi","street":"Begampur Barwala Road","district":"North West","placeid":"356jx7ps-b0b9274119670633df3ac4fc6700967d","name":"Maa Santoshi Furniture","state":"Delhi","category":"600-6600-0078"}
{"ROUTING":{"latitude":27.59768,"longitude":78.04937},"town":"Nayaganj","city":"Hathras","district":"Hathras","placeid":"356jx7ps-2fe747d393c30e3fc15c73c52072e7be","name":"Sanjeev Kumar Vipin Kumar","state":"Uttar Pradesh","category":"600-6800-0000"}
{"DISPLAY":{"latitude":12.94285,"longitude":77.58064},"ROUTING":{"latitude":12.94285,"longitude":77.58065},"town":"Jayanagar","city":"Bengaluru","district":"Bengaluru","placeid":"356tdr1t-6e7b5756f1884cc991ea3f268f5078c8","name":"Pegasus Travels","state":"Karnataka","category":"600-6900-0096"}
{"DISPLAY":{"latitude":24.4374703,"longitude":92.2497988},"ROUTING":{"latitude":24.43747,"longitude":92.2498},"city":"Kadamtala","street":"NH-44","district":"North Tripura","placeid":"356jx7ps-ccfcf86823d6042551b0f4b8a89e5e85","name":"Churaibari","state":"Tripura","category":"900-9100-0214"}
{"ROUTING":{"latitude":22.57665,"longitude":88.42983},"town":"Salt Lake","city":"Kolkata","district":"North Twenty Four Parganas","placeid":"356jx7ps-3865c0869fc406efa9a2088849dd3889","name":"Megatherm Electronics","state":"West Bengal","category":"700-7250-0136"}
{"DISPLAY":{"latitude":26.4273,"longitude":80.32023},"ROUTING":{"latitude":26.42729,"longitude":80.32031},"town":"Saket Nagar","city":"Kanpur","street":"Hamirpur Road","district":"Kanpur Nagar","placeid":"356tu9n7-6a3ef2c77c8546c584d461a963dd4bec","name":"Haveli Garden","state":"Uttar Pradesh","category":"500-5100-0057"}
{"DISPLAY":{"latitude":26.89085,"longitude":75.74961},"ROUTING":{"latitude":26.89073,"longitude":75.74969},"town":"Nirman Nagar","city":"Jaipur","district":"Jaipur","placeid":"356jx7ps-08d067fa59b70d2fdc2db42e9fed4569","name":"Ramshiv Hanuman Mandir","state":"Rajasthan","category":"300-3200-0031"}
{"DISPLAY":{"latitude":29.92687,"longitude":73.8647},"ROUTING":{"latitude":29.92686,"longitude":73.86472},"town":"Purani Abadi","city":"Sriganganagar","street":"Bus Stand Main Road","district":"Sriganganagar","placeid":"356ttkd2-8c3a8b6a7e6f42e48833b6c270da4bf6","name":"Gour Supporters","state":"Rajasthan","category":"700-7250-0136"}
{"ROUTING":{"latitude":14.36848,"longitude":74.83552},"city":"Siddapur","district":"Uttara Kannada","placeid":"356tdt1w-f6fb0b6278464480aa6c9eb7e00c8f2e","name":"Kodgibail","state":"Karnataka","category":"900-9100-0214"}
{"ROUTING":{"latitude":31.61773,"longitude":74.8376},"town":"Kot Khalsa","city":"Amritsar","district":"Amritsar","placeid":"356jx7ps-86775a3c038f010de923391c18084c12","name":"Grocery Store","state":"Punjab","category":"600-6300-0066"}
{"DISPLAY":{"latitude":19.10958,"longitude":72.85885},"ROUTING":{"latitude":19.1096,"longitude":72.859},"town":"Andheri East","city":"Mumbai","street":"Cardinal Gracious Road","district":"Mumbai Suburban","placeid":"356jx7ps-f81debdda1f70358d076f62899b6f6df","name":"Janta Paper Mart","state":"Maharashtra","category":"700-7250-0136","MOBILE":"+919821135056"}
{"DISPLAY":{"latitude":19.41997,"longitude":72.81382},"ROUTING":{"latitude":19.42,"longitude":72.81382},"town":"Nalasopara West","city":"Nalasopara","street":"Station Road","district":"Palghar","placeid":"356jx7ps-81c4de2653db0a43e7b1cb9ffda24a74","name":"Navkar furniture","state":"Maharashtra","category":"600-6600-0080"}
{"ROUTING":{"latitude":11.51161,"longitude":79.31307},"city":"Virudhachalam","street":"NH-532","district":"Cuddalore","placeid":"356jx7ps-d69fa99681ee04eb5038cfec3b581cb2","name":"Place of Worship","state":"Tamil Nadu","category":"300-3200-0031"}
{"ROUTING":{"latitude":27.88257,"longitude":79.91259},"town":"Krishna Nagar Colony","city":"Shahjahanpur","district":"Shahjahanpur","placeid":"356tubyd-0cbbcb5d89c64ffbb1f8239466bf8ddb","name":"Shiv Mandir","state":"Uttar Pradesh","category":"300-3200-0031"}
{"DISPLAY":{"latitude":28.51277,"longitude":77.11056},"ROUTING":{"latitude":28.51281,"longitude":77.11052},"town":"Rajokri","city":"New Delhi","district":"South West","placeid":"356ttnf4-9aaecc343b814282aa6ee256f193e737","name":"Deepak Tailors","state":"Delhi","category":"600-6900-0096","MOBILE":"+919971415070"}
{"ROUTING":{"latitude":24.50184,"longitude":86.67829},"town":"Barmasia","city":"Deoghar","street":"Nandan Pahar Road","district":"Deoghar","placeid":"356jx7ps-5fe0b88f08780ed150833b78e176f1de","name":"Patanjali Chikitsalay","state":"Jharkhand","category":"600-6400-0070"}
{"DISPLAY":{"latitude":28.62915,"longitude":77.03235},"ROUTING":{"latitude":28.62915,"longitude":77.03235},"town":"Uttam Nagar","city":"New Delhi","district":"West","placeid":"356ttnfb-00278a0a20fd4d8b848b5968cce76a6c","name":"Singhla Stores","state":"Delhi","category":"600-6300-0066"}
{"DISPLAY":{"latitude":26.4208,"longitude":80.30872},"ROUTING":{"latitude":26.42076,"longitude":80.30879},"town":"Saket Nagar","city":"Kanpur","district":"Kanpur Nagar","placeid":"356tu9n7-e649e2ab666c47ffb4b942dc68936219","name":"R.G. Mobile Reparing","state":"Uttar Pradesh","category":"600-6500-0072","MOBILE":"+917505637472"}
{"DISPLAY":{"latitude":26.60426,"longitude":74.8517791},"ROUTING":{"latitude":26.60426,"longitude":74.8517791},"town":"Ricco Industrial Area","city":"Kishangarh","district":"Ajmer","placeid":"3561r4ve-00c6324f4daf0e22af3fa3591eb1a782","name":"Siddheshwari Marble","state":"Rajasthan","category":"600-6600-0077"}
{"DISPLAY":{"latitude":13.06075,"longitude":80.24938},"ROUTING":{"latitude":13.06053,"longitude":80.24941},"town":"Nungambakkam","city":"Chennai","PHONE":"+919789113855","district":"Chennai","placeid":"356tf346-07d099447d4f418e8b7d9c8a54a99f49","name":"Exstosoft Technologies","state":"Tamil Nadu","category":"700-7200-0261"}
{"DISPLAY":{"latitude":16.840483,"longitude":74.0690476},"ROUTING":{"latitude":16.84048,"longitude":74.06905},"city":"Panhala","district":"Kolhapur","placeid":"356jx7ps-95f4b7e544750c1580e75ca47d93a3a2","name":"Shivaji Nagar","state":"Maharashtra","category":"900-9100-0214"}
{"DISPLAY":{"latitude":20.7386706,"longitude":78.5987887},"ROUTING":{"latitude":20.7386706,"longitude":78.5987887},"town":"Ram Nagar","city":"Wardha","district":"Wardha","placeid":"3561r4ve-8b45d2a87e1f02549ecee257bf126790","name":"Taj Gadi Traders","state":"Maharashtra","category":"700-7400-0141"}
{"DISPLAY":{"latitude":28.6449918,"longitude":77.2796891},"ROUTING":{"latitude":28.6449918,"longitude":77.2796891},"town":"Krishna Nagar","city":"New Delhi","district":"East","placeid":"356ttnfy-da13d6064a844a5fb21154c5c214a7e3","name":"Raja Coolers","state":"Delhi","category":"600-6500-0072","MOBILE":"+919211230071"}
{"ROUTING":{"latitude":21.21183,"longitude":81.38608},"town":"Khursipar","city":"Bhilai","district":"Durg","placeid":"356jx7ps-1dde8e7f1a5c028a439f544ce988e86c","name":"Kadari Ruye Dukan","state":"Chhattisgarh","category":"600-6900-0096","MOBILE":"+918103532876"}