{"country":"DEU","ROUTING":{"latitude":50.93756,"longitude":6.95868},"town":"Innenstadt","city":"Köln","PHONE":"+4922122121119","placeid":"276u1hcy-31c7cc8feb2e47e094b231aea315b6e0","EMAIL":"info@wallraf.museum","OTHER":"http://www.facebook.com/184415211577370","DISPLAY":{"latitude":50.9373,"longitude":6.95843},"street":"Obenmarspforten","district":"Köln","name":"Wallraf-Richartz-Museum","WEBADDRESS":"http://www.wallraf.museum","state":"Nordrhein-Westfalen","category":"300-3000-0000","FAX":"0221 221226"}
{"country":"NZL","ROUTING":{"latitude":-39.6165,"longitude":176.80936},"town":"Twyford","city":"Hastings","PHONE":"+6468797906","placeid":"554rbvwx-704282d0c78646fa8dbbcabb280836b3","EMAIL":"info@pask.co.nz","OTHER":"https://www.facebook.com/PaskWinery","street":"Omahu Rd","district":"Hastings District","name":"Pask Winery","WEBADDRESS":"https://www.pask.co.nz/contact/","state":"Hawke's Bay","category":"300-3000-0000","FAX":"06-879 6428"}
{"country":"USA","DISPLAY":{"latitude":41.9798117,"longitude":-87.8820407},"ROUTING":{"latitude":41.97981,"longitude":-87.88204},"city":"Chicago","street":"I-190","PHONE":"+17736862200","district":"Cook","placeid":"840dp3qz-87a2576506de409f9f0bbbefd7faa12b","name":"Chicago O'Hare Int'l Airport","TOLLFREE":"800-8326352","state":"Illinois","category":"400-4000-4581"}
{"country":"GBR","ROUTING":{"latitude":53.34436,"longitude":-1.92352},"city":"Chinley","street":"Hayfield Road","district":"High Peak","placeid":"826gcqxk-7f8300dcd5314122978ec5c479304321","name":"Peak District National Park","state":"Derbyshire","category":"550-5510-0202"}
{"OTHER":"http://www.facebook.com/135530019800999","country":"MAC","ROUTING":{"latitude":22.18016,"longitude":113.53785},"town":"澳門半島","city":"澳門","PHONE":"+85328933339","placeid":"446jx7ps-4ff648a944a40142e9bb287d2c64aca6","name":"Macau Tower","WEBADDRESS":"http://www.macautower.com.mo","state":"澳門特別行政區","category":"300-3000-0023"}
{"country":"BRA","DISPLAY":{"latitude":-22.95163,"longitude":-43.21076},"ROUTING":{"latitude":-22.95209,"longitude":-43.21165},"town":"Jardim Botânico","city":"Rio de Janeiro","street":"Estrada do Corcovado","district":"Rio de Janeiro","placeid":"076httek-29bb7f6d882505ca19dc4e2e952cf325","name":"Cristo Redentor","WEBADDRESS":"http://www.parquedatijuca.com.br/#atracao?id=1","state":"Sudeste","category":"300-3000-0000"}
{"country":"USA","ROUTING":{"latitude":30.45701,"longitude":-94.38635},"PHONE":"+14099516700","placeid":"8409vkvk-d5611b9e6062473b94445986878a7372","EMAIL":"t.brindle@nps.gov","OTHER":"http://www.facebook.com/143287105703442","DISPLAY":{"latitude":30.4571318,"longitude":-94.3863388},"street":"FM-420","district":"Hardin","name":"Big Thicket National Preserve","WEBADDRESS":"https://www.nps.gov","state":"Texas","category":"300-3000-0000","FAX":"(409) 951-6714"}
{"country":"FRA","ROUTING":{"latitude":44.11403,"longitude":7.28796},"city":"Saint-Martin-Vésubie","street":"M89","district":"Alpes-Maritimes","placeid":"250spv4v-940bbb8a3b1a4d0297651d57cf61aa17","name":"Parc National du Mercantour","state":"Provence-Alpes-Côte d'Azur","category":"550-5510-0202"}
{"country":"CHE","ROUTING":{"latitude":47.56232,"longitude":7.63466},"city":"Riehen","street":"Grenzacherstrasse","district":"Basel-Stadt","placeid":"756u0mqt-5ef25bdccf8b4d39809fee7d02fbe06c","name":"Riehen/Grenzacherstrasse/Deutschland","state":"Basel-Stadt","category":"800-8100-0172"}
{"country":"AUS","ROUTING":{"latitude":-42.83752,"longitude":147.50543},"street":"Addison Dr","PHONE":"+61362161600","district":"Cambridge","placeid":"036r22uk-0e470c8f7624466ea134c3126ad7a0d6","name":"Hobart International Airport","WEBADDRESS":"https://hobartairport.com.au/","state":"Tasmania","category":"900-9300-0221"}
{"country":"FIN","ROUTING":{"latitude":62.19539,"longitude":22.45005},"city":"Karvia","street":"Kyrönkankaantie","district":"Satakunta","placeid":"246u7pcy-bf843b1c58d844b4a0d0259ce583b244","name":"Kauhaneva-Pohjankankaan Kans.Puisto","state":"Lounais-Suomi","category":"550-5510-0202"}
{"country":"RUS","ROUTING":{"latitude":59.938202,"longitude":30.3171405},"town":"Центральный район","city":"Санкт-Петербург","PHONE":"+78127109079","placeid":"643udtsc-86d9565c626b44ecaa02d3ae1b2f0b99","DISPLAY":{"latitude":59.938202,"longitude":30.3171405},"street":"Большая Морская улица","district":"Санкт-Петербург","name":"Главный Штаб","WEBADDRESS":"http://www.hermitagemuseum.org/wps/portal/hermitage?lng=en","state":"Северо-Западный федеральный округ","category":"300-3000-0000"}
{"country":"MAC","DISPLAY":{"latitude":22.18982,"longitude":113.54362},"ROUTING":{"latitude":22.18997,"longitude":113.54357},"town":"澳門半島","city":"澳門","street":"葡京路","PHONE":"+85328377666","placeid":"446jx7ps-ffa5cb981a100d8f88275b17d6e3afa4","name":"Pu Jing Yu Le Chang","state":"澳門特別行政區","category":"200-2300-0021"}
{"OTHER":"http://www.facebook.com/135705026461470","country":"OMN","DISPLAY":{"latitude":23.39464,"longitude":57.82871},"ROUTING":{"latitude":23.39486,"longitude":57.82885},"city":"نخل","district":"نخل","placeid":"512tk1j5-0d009f669979427b9a84a6816ae9f1c8","name":"Nakhal Fort","WEBADDRESS":"http://www.omantripper.com/nakhal-fort","state":"جنوب الباطنة","category":"300-3000-0000"}
{"country":"USA","ROUTING":{"latitude":36.20628,"longitude":-86.69357},"city":"Nashville","PHONE":"+16158716779","placeid":"840dn6mg-2cae62615a284fca9821c41e7e79e64c","EMAIL":"info@opry.com","OTHER":"http://www.facebook.com/205810593560573","district":"Davidson","name":"Grand Ole Opry","WEBADDRESS":"http://www.opry.com","state":"Tennessee","category":"300-3000-0000","FAX":"(620) 276-9630"}
{"country":"PRT","ROUTING":{"latitude":32.80519,"longitude":-16.88239},"city":"Serrado","street":"Avenida 25 de Maio","district":"Santana","placeid":"620jx7ps-a093bdf463a602c9c354c1a8cf1b6f07","name":"Reserva da Biosfera de Santana","state":"Ilha da Madeira","category":"550-5510-0202"}
{"country":"FRA","ROUTING":{"latitude":47.32572,"longitude":1.06965},"city":"Chenonceaux","PHONE":"+33247239007","placeid":"250u02v0-e5e185d681ec43a1aee8f0f340c2fa14","EMAIL":"info@chenonceau.com","OTHER":"http://www.facebook.com/527106463999306","DISPLAY":{"latitude":47.32455,"longitude":1.07045},"district":"Indre-et-Loire","name":"Château de Chenonceau","WEBADDRESS":"http://www.chenonceau.com","state":"Centre-Val de Loire","category":"300-3000-0000","FAX":"02 47 23 80 88"}
{"country":"AUT","DISPLAY":{"latitude":47.7417639,"longitude":16.5448358},"ROUTING":{"latitude":47.74176,"longitude":16.54483},"city":"Klingenbach","street":"B16","district":"Eisenstadt-Umgebung","placeid":"040u27z8-24458526e60046b6ac76443e800f3cf3","name":"Klingenbach/B16/Ungarn","state":"Burgenland","category":"800-8100-0172"}
{"country":"KAZ","DISPLAY":{"latitude":54.9213899,"longitude":70.98746},"ROUTING":{"latitude":54.92139,"longitude":70.98746},"street":"М-51","district":"Мағжан Жұмабаев ауданы","placeid":"398v9f2r-cdb7c9f1953b4e44927c2faf55179970","name":"Karakoga/M-51/ Resey","state":"Солтүстік Қазақстан облысы","category":"800-8100-0172"}
{"country":"FRA","DISPLAY":{"latitude":44.1543998,"longitude":7.0920548},"ROUTING":{"latitude":44.15439,"longitude":7.09205},"city":"Roure","street":"M2205","district":"Alpes-Maritimes","placeid":"250spv51-48154d700ad449a3ae66bf38bae6b677","name":"Parc National du Mercantour","state":"Provence-Alpes-Côte d'Azur","category":"550-5510-0202"}
{"country":"MAR","DISPLAY":{"latitude":34.02412,"longitude":-6.82278},"ROUTING":{"latitude":34.02511,"longitude":-6.82352},"town":"الرباط","city":"الرباط","street":"شارع محمد اليزيدي","district":"الرباط","placeid":"504ey517-82985beb16d24f5aac560d410ab2675c","name":"Tour Hassan","state":"الرباط - سلا - القنيطرة","category":"300-3000-0000"}
{"country":"AUT","ROUTING":{"latitude":47.12753,"longitude":10.26404},"town":"Sankt Anton am Arlberg","city":"Sankt Anton am Arlberg","PHONE":"+4354462352","placeid":"040d408k-ad782fa7e5d80a6700e84c77e9864f92","EMAIL":"info@stantonamarlberg.com","OTHER":"http://www.facebook.com/341112772963","street":"Dorfstraße","district":"Landeck","name":"Sankt Anton / Arlberg","WEBADDRESS":"https://www.stantonamarlberg.com","state":"Tirol","category":"700-7200-0000","FAX":"05446 2532"}
{"country":"BWA","DISPLAY":{"latitude":-25.27483,"longitude":25.71267},"ROUTING":{"latitude":-25.27483,"longitude":25.71267},"street":"A2","district":"South East","placeid":"072ked21-41cc8f2d3ef14abb804349c35393a9db","name":"Pioneer Gate/A2/South Africa","state":"South East","category":"800-8100-0172"}
{"country":"GBR","ROUTING":{"latitude":55.82465,"longitude":-4.25167},"city":"Glasgow","PHONE":"+441416204000","placeid":"826gcuvx-2197edbee98c4ab19bf89b28da2d18e2","OTHER":"http://www.facebook.com/177153579542469","DISPLAY":{"latitude":55.82513,"longitude":-4.25183},"district":"Glasgow","name":"The National Stadium","WEBADDRESS":"http://www.hampdenpark.co.uk","state":"Lanarkshire","category":"300-3000-0000","FAX":"0141 620 4561"}
{"country":"PRT","DISPLAY":{"latitude":32.80716,"longitude":-17.14103},"ROUTING":{"latitude":32.80716,"longitude":-17.14103},"street":"R209","district":"Porto Moniz","placeid":"620etgf9-a78d5516663d4940b737cae0d95dbd92","name":"Floresta Laurissilva na Madeira","state":"Ilha da Madeira","category":"550-5510-0202"}
{"country":"SVK","ROUTING":{"latitude":48.925,"longitude":19.60284},"city":"Horná Lehota","street":"584","district":"Brezno","placeid":"703u2tyq-de4c995a3dd141cd8123827ef0c40dec","name":"Narodny park Nizke Tatry","state":"Banskobystrický kraj","category":"550-5510-0202"}
{"OTHER":"http://www.facebook.com/1523933640981831","country":"DEU","ROUTING":{"latitude":54.12799,"longitude":8.85759},"town":"Büsum","city":"Büsum","street":"Südstrand","PHONE":"+4948346375","district":"Dithmarschen","placeid":"276u1w7c-e5a1ea43cd444c0488c06e9449162ef0","name":"Nationalpark Schleswig-Holsteinisches Wattenmeer","state":"Schleswig-Holstein","category":"550-5510-0202"}
{"country":"PRT","DISPLAY":{"latitude":41.696838,"longitude":-8.1687205},"ROUTING":{"latitude":41.69683,"longitude":-8.16872},"city":"Bairro","street":"N308-1","district":"Terras de Bouro","placeid":"620ez6jn-b90c302638804e6c95cfc7a564183a0b","name":"Parque Nacional da Peneda-Gerês","state":"Braga","category":"550-5510-0202"}
{"country":"MYS","DISPLAY":{"latitude":6.6640921,"longitude":100.3272275},"ROUTING":{"latitude":6.66409,"longitude":100.32723},"town":"Padang Besar","city":"Padang Besar","district":"Kangar","placeid":"458jx7ps-b79081fc6ab90575c390526bb932402d","name":"Titi Tinggi/Padang Besar/Thailand","state":"Perlis","category":"800-8100-0172"}
{"country":"USA","DISPLAY":{"latitude":38.51243,"longitude":-90.67479},"ROUTING":{"latitude":38.51243,"longitude":-90.67479},"city":"Eureka","PHONE":"+16369384800","district":"St Louis","placeid":"8409yze0-3e5444f7350d483bb48287a8df85482d","name":"Six Flags St Louis","WEBADDRESS":"http://sixflagsstlouis.com","state":"Missouri","category":"550-5520-0357"}
