{"title": "some report yo", "source": {"coord": {"lat": 22.58195, "lon": 88.36043}}, "osm": {"lat": 22.5821271, "lon": 88.3602101237402, "distance": "0.029956895913785014"}, "name": "Marble Palace", "address": "Jorasanko Kolkata Kolkata West Bengal", "search_string": "Marble Palace Jorasanko Kolkata West Bengal"}
{"title": "some report yo", "source": {"coord": {"lat": 28.62834, "lon": 77.21661}}, "osm": {"lat": 28.6280479, "lon": 77.2165711, "distance": "0.032701233607654465"}, "name": "Jantar Mantar", "address": "Connaught Place New Delhi New Delhi Delhi", "search_string": "Jantar Mantar Connaught Place New Delhi"}
{"title": "some report yo", "source": {"coord": {"lat": 27.09378, "lon": 77.66252}}, "osm": {"lat": 27.0943123, "lon": 77.6627939, "distance": "0.06510396980354236"}, "name": "Buland Darwaza", "address": "Fatehpur Sikri Fatehpur Sikri Agra Uttar Pradesh", "search_string": "Buland Darwaza Fatehpur Sikri Agra Uttar Pradesh"}
{"title": "some report yo", "source": {"coord": {"lat": 26.91754, "lon": 75.7965}}, "osm": {"lat": 26.9169739, "lon": 75.7962705150106, "distance": "0.06693350423712462"}, "name": "Hathroi Fort", "address": "C-Scheme Jaipur Jaipur Rajasthan", "search_string": "Hathroi Fort C-Scheme Jaipur Rajasthan"}
{"title": "some report yo", "source": {"coord": {"lat": 17.38402, "lon": 78.40331}}, "osm": {"lat": 17.38350655, "lon": 78.4011408662283, "distance": "0.23715525619165792"}, "name": "Golconda Fort", "address": "Golconda Hyderabad Hyderabad Telangana", "search_string": "Golconda Fort Hyderabad Telangana"}
{"title": "some report yo", "source": {"coord": {"lat": 19.1238, "lon": 72.89773}}, "osm": {"lat": 19.12766235, "lon": 72.9063321372885, "distance": "1.000576604525958"}, "name": "Powai Lake", "address": "Powai Mumbai Mumbai Suburban Maharashtra", "search_string": "Powai Lake Mumbai Suburban Maharashtra"}
{"title": "some report yo", "source": {"coord": {"lat": 18.51063, "lon": 73.85447}}, "osm": {"lat": 18.51076695, "lon": 73.8544420238745, "distance": "0.015511246992673314"}, "name": "Raja Dinkar Kelkar Museum", "address": "Shukrawar Peth Pune Pune Maharashtra", "search_string": "Raja Dinkar Kelkar Museum Shukrawar Peth Pune Maharashtra"}
{"title": "some report yo", "source": {"coord": {"lat": 22.54739, "lon": 88.34305}}, "osm": {"lat": 22.54489995, "lon": 88.3425805274656, "distance": "0.2810476441972388"}, "name": "Victoria Memorial", "address": "Maidan Kolkata Kolkata West Bengal", "search_string": "Victoria Memorial Maidan Kolkata West Bengal"}
{"title": "some report yo", "source": {"coord": {"lat": 17.40527, "lon": 78.46929}}, "osm": {"lat": 17.4060347, "lon": 78.4688634721047, "distance": "0.09632428292134716"}, "name": "Birla Mandir", "address": "Saifabad Hyderabad Hyderabad Telangana", "search_string": "Birla Mandir Saifabad Hyderabad Telangana"}
{"title": "some report yo", "source": {"coord": {"lat": 26.98142, "lon": 75.84392}}, "osm": {"lat": 26.9831219, "lon": 75.8474343, "distance": "0.39633475508485816"}, "name": "Jaigarh Fort", "address": "Amer Jaipur Jaipur Rajasthan", "search_string": "Jaigarh Fort Amer Jaipur Rajasthan"}
{"title": "some report yo", "source": {"coord": {"lat": 19.01619, "lon": 72.83124}}, "osm": {"lat": 19.0159502, "lon": 72.8306612, "distance": "0.06643349425482634"}, "name": "Siddhivinayak", "address": "Dadar West Mumbai Mumbai Maharashtra", "search_string": "Siddhivinayak Dadar West Mumbai Maharashtra"}
{"title": "some report yo", "source": {"coord": {"lat": 26.95398, "lon": 75.84242}}, "osm": {"lat": 26.942206, "lon": 75.8374738, "distance": "1.3979990319606186"}, "name": "Jal Mahal", "address": "Amer Road Jaipur Jaipur Rajasthan", "search_string": "Jal Mahal Amer Road Jaipur Rajasthan"}
