{"title": "some report yo", "source": {"coord": {"lat": 31.60463, "lon": 74.57315}, "name": "Amritsar Sub-District/NH-1/Pakistan", "address": "Amritsar Sub-District Amritsar Punjab", "search_string": "Amritsar Sub-District/NH-1/Pakistan Sub-District Punjab"}, "osm": {"lat": "0.0", "lon": "0.0", "distance": "0", "address": "Attari Border, Grand Trunk Road, Attari, Amritsar I Tahsil, Amritsar, Punjab, 143108, India"}}
{"title": "some report yo", "source": {"coord": {"lat": 23.05466, "lon": 72.59206}, "name": "Calico Museum of Textiles", "address": "Shahibaug Ahmedabad Ahmedabad Gujarat", "search_string": "Calico Museum of Textiles Shahibaug Ahmedabad Gujarat"}, "osm": {"lat": "0.0", "lon": "0.0", "distance": "0", "address": "Shahibaug, Ahmedabad, Ahmadabad City Taluka, Ahmedabad District, Gujarat, 380001, India"}}
{"title": "some report yo", "source": {"coord": {"lat": 18.92651, "lon": 72.8315}, "name": "Chhatrapati Shivaji Maharaj Vastu Sangrahalaya", "address": "Fort Mumbai Mumbai Maharashtra", "search_string": "Chhatrapati Shivaji Maharaj Vastu Sangrahalaya Fort Mumbai Maharashtra"}, "osm": {"lat": "0.0", "lon": "0.0", "distance": "0", "address": "Jehangir Art Gallery, Mahatma Gandhi Road, Kala Ghoda, A Ward, Zone 1, Mumbai, Mumbai City, Maharashtra, 400001, India"}}
{"title": "some report yo", "source": {"coord": {"lat": 28.69116, "lon": 80.55195}, "name": "Palia/Gauriphanta/SH-90/Nepal", "address": "Palia Lakhimpur Kheri Uttar Pradesh", "search_string": "Palia/Gauriphanta/SH-90/Nepal Palia Lakhimpur Kheri Uttar Pradesh"}, "osm": {"lat": "0.0", "lon": "0.0", "distance": "0", "address": "Indo-Nepal Custom Road, Gauri Phanta, Kheri, Uttar Pradesh, India"}}
{"title": "some report yo", "source": {"coord": {"lat": 19.01619, "lon": 72.83124}, "name": "Siddhivinayak", "address": "Dadar West Mumbai Mumbai Maharashtra", "search_string": "Siddhivinayak Dadar West Mumbai Maharashtra"}, "osm": {"lat": 19.0159502, "lon": 72.8306612, "distance": "0.06646744986512793", "address": "Siddhivinayak, Kakasaheb Gadgil Marg, G/N Ward, Zone 2, Mumbai, Mumbai City, Maharashtra, 400028, India"}}
{"title": "some report yo", "source": {"coord": {"lat": 28.65111, "lon": 77.23437}, "name": "Ya Mai Jia Qing Zhen Si", "address": "Jama Masjid New Delhi Central Delhi", "search_string": "Ya Mai Jia Qing Zhen Si Jama Masjid New Delhi Central"}, "osm": {"lat": "0.0", "lon": "0.0", "distance": "0", "address": "Meena Bazaar, Chandni Chowk, Old Delhi, Delhi, Central Delhi, Delhi, 110006, India"}}
{"title": "some report yo", "source": {"coord": {"lat": 23.03756, "lon": 88.87643}, "name": "Bongaon/Petrapole/NH-35/Bangladesh", "address": "Bongaon North Twenty Four Parganas West Bengal", "search_string": "Bongaon/Petrapole/NH-35/Bangladesh Bongaon North Twenty Four Parganas West Bengal"}, "osm": {"lat": "0.0", "lon": "0.0", "distance": "0", "address": "NH112, Haridaspur, Hugli, North 24 Parganas, West Bengal, India"}}
{"title": "some report yo", "source": {"coord": {"lat": 26.64874, "lon": 88.41719}, "name": "Rajganj/Phulbari/Bangladesh", "address": "Rajganj Jalpaiguri West Bengal", "search_string": "Rajganj/Phulbari/Bangladesh Rajganj Jalpaiguri West Bengal"}, "osm": {"lat": "0.0", "lon": "0.0", "distance": "0", "address": "AH2, Phulbari, Jalpaiguri, West Bengal, 734005"}}
{"title": "some report yo", "source": {"coord": {"lat": 19.23146, "lon": 72.86374}, "name": "Kanheri Caves", "address": "Borivali East Mumbai Mumbai Suburban Maharashtra", "search_string": "Kanheri Caves Borivali East Mumbai Suburban Maharashtra"}, "osm": {"lat": "0.0", "lon": "0.0", "distance": "0", "address": "Mallapada, R/C Ward, Zone 4, Mumbai, Mumbai Suburban, Maharashtra, 400066, India"}}
{"title": "some report yo", "source": {"coord": {"lat": 26.89318, "lon": 75.81692}, "name": "Moti Dungri Fort", "address": "Tilak Nagar Jaipur Jaipur Rajasthan", "search_string": "Moti Dungri Fort Tilak Nagar Jaipur Rajasthan"}, "osm": {"lat": "0.0", "lon": "0.0", "distance": "0", "address": "Sindhi Colony, Adarsh Nagar, Jaipur Municipal Corporation, Sanganer Tehsil, Jaipur, Rajasthan, 302004, India"}}
